[
    {
        "image": "http://lh3.googleusercontent.com/IQ2zP3w76DUPBbbUgZLMkJD4VHLdbdTfUzjbUM7tW0sshEEPySpPAZmfV-dtLUYr3etWasKN4eEFg77NPSWt",
        "name": "M\u00e9daillon Du 105",
        "latitude": 49.882861,
        "longitude": 2.294174
    },
    {
        "image": "http://lh3.ggpht.com/9A4s3Ydgi2-Bdu2kmnk0MjsOx5jHH_K_td3IIWPbgzEDoMKk-tVF8yEZHrxYFmxbV0U7LBH81XzdJxd3FrY",
        "name": "Amiens - Square Pierre-Marie Saguez",
        "latitude": 49.892174,
        "longitude": 2.295971
    },
    {
        "image": "http://lh3.ggpht.com/t_aeWQbwdJEWwCJ0VS-BiteDhkIerT0R0hYnSbvMQd5Mbbg7x9DAgRfxcR0ZYOzciK9rDTR0tOhhOrOzj9pF",
        "name": "Les Lions",
        "latitude": 49.887096,
        "longitude": 2.295549
    },
    {
        "image": "http://lh3.googleusercontent.com/1Ugo3lJASwS4KCBXq79TWkQYXeokQdVEhLjNeiJFIe2oVp0asZ65wIjKNueVkUgKH3hw4Hjxtl4VnU-JrPc",
        "name": "Maison de la BD",
        "latitude": 49.891906,
        "longitude": 2.312742
    },
    {
        "image": "http://lh5.ggpht.com/-pC9A5fJneF9DJyNnh8jEZuSnWLQmqEhgWx_iN9dsVAzTa-tIIN2wyLaG17vqAXscyY34TKeCrDbRtL2HMOLdw",
        "name": "Soci\u00e9t\u00e9 des Amis des Arts",
        "latitude": 49.896961,
        "longitude": 2.30445
    },
    {
        "image": "http://lh3.ggpht.com/qoJieC1PiKyuxh19d2LSMhbhJpis-_p_H5Ukw1gZGxNVPDLXNTVNHB8YKbdALvcw8RywKoxT-651G3oYo_yO",
        "name": "La Vierge De L'\u00eelot",
        "latitude": 49.882693,
        "longitude": 2.302363
    },
    {
        "image": "http://lh4.ggpht.com/mt_q6HxeqxEzh05aFGR9wE2vcKiO1-cSjRC7WUs_XAujEKE18rdQrHdsjPu7POA6tgok0EOXBVumUZKgGpZI",
        "name": "Porte D\u00e9cor\u00e9e",
        "latitude": 49.889664,
        "longitude": 2.29334
    },
    {
        "image": "http://lh3.googleusercontent.com/Mhjdb-_8BGslHJ9H5IaikeZXE79mxjdzmH0Y2NY9AohXtPe13AEeE41bdX016OdRqcWfCnpcLXjp_RtWk_k",
        "name": "Complexe Sportif Emile Guegan",
        "latitude": 49.889148,
        "longitude": 2.266642
    },
    {
        "image": "http://lh5.ggpht.com/Q2Xg1m7BrkiYVdsq3aiD0FsjI6N9xKcSlvrdu2MmcAs2CRVtR9AXki4JY4_RIfHMIYNSKb2MVGXF6kE-QEhhXyw9u_L9PJVXSNlI3r9TO0zAyiGE",
        "name": "Gare du nord Amiens",
        "latitude": 49.890811,
        "longitude": 2.30695
    },
    {
        "image": "http://lh6.ggpht.com/cgdPXF-67-BqY31H37RWVwSYzYMEaYS_kmtZw2x1n4l2M9cWZZ-4bDeQTDv3tTgWkCFvebFD-zYRlxaRm22H6E3kcKH6NiCuXtmljy8lUlOFuM1p",
        "name": "Amiens - LaFleur Statue",
        "latitude": 49.898335,
        "longitude": 2.302688
    },
    {
        "image": "http://lh4.ggpht.com/x_6VksHuWYjNBuuJP8lS-c_ENipUA5x13NRIYC6-ZGIau4n7jjMAIG-x5DM6D3I4u3UglU_U5rePNM-q8yA",
        "name": "Tissage de Velours",
        "latitude": 49.89376,
        "longitude": 2.307013
    },
    {
        "image": "http://lh5.ggpht.com/lKXXE_YOTdUxb3wP12p7J-aVQ8BiSmFEQufjQSuqLnbFYzL9WH77aWoEr8tyIV7rf4CwUBrqP1fFTP89RsifQQ",
        "name": "La R\u00e9colte du Cacao, Amiens",
        "latitude": 49.894836,
        "longitude": 2.299991
    },
    {
        "image": "http://lh3.ggpht.com/gWn95cMIc957yB1UlB13AVdKNIlN0NSVC3m7VJ2q_VPbgBQcLD0HLO4STAidisFvrYZImerutLs0QWH9au8",
        "name": "Th\u00e9\u00e2tre Jacques Tati",
        "latitude": 49.87465,
        "longitude": 2.312157
    },
    {
        "image": "http://lh6.ggpht.com/tpMwBYoV_lkxlgVcnFQYjgOMYw4IPD7bGBn0hwK_Mq94h5LkbJ9p701rtpNPZ1k90umNYMvzPFSqzK17Dehg",
        "name": "Le Soleil",
        "latitude": 49.908788,
        "longitude": 2.297301
    },
    {
        "image": "http://lh3.googleusercontent.com/MJ-7OAb2fOKc_6gEh8QMK7QAnDxEKhCfMFZZP152RCydSGJuf5giXKWjQSRFuJfUF-lZGLSGiCXMLId1FIA",
        "name": "Art de fer forg\u00e9",
        "latitude": 49.910464,
        "longitude": 2.32463
    },
    {
        "image": "http://lh4.ggpht.com/6AVgBTOEdkGrSdKTE2S48G9AjVahw5iWxHsgBoDTPp5Gs9lP8cSiDDm1LhKAFfAWZatn36Lkj3-7X8VwRY6B",
        "name": "Les Grilles De La Hotoie",
        "latitude": 49.897744,
        "longitude": 2.286057
    },
    {
        "image": "http://lh3.googleusercontent.com/sv76va7bMRRKCP7l9lULa9f2svBrmPDqrqAgO7thbNJS0c5jPvWToFXw30tHfW_GEMb79kNxSHV2xG7xDT41",
        "name": "Le papillon",
        "latitude": 49.901469,
        "longitude": 2.297012
    },
    {
        "image": "http://lh6.ggpht.com/nSzbAkly0sb2T4FTveo8sbKBe9ud6sScOZYXHn70P2UbLXyvF7votdoazUaqyRenlXYObNZaSslSqiTv5Ps",
        "name": "Lookout Point",
        "latitude": 49.897594,
        "longitude": 2.308214
    },
    {
        "image": "http://lh4.ggpht.com/gZZsBOCVfDh_cW6N0x_0ERmJ3xTXof8KH_Jy5AFmcuX4MbHwpBnAWpedIJVt0aFvxssDjSh9e5JIJDZYvR_f",
        "name": "Serpent Du Parc St Pierre",
        "latitude": 49.899168,
        "longitude": 2.307836
    },
    {
        "image": "http://lh3.googleusercontent.com/PNu6Z5VEge-mSbXIZciBmzhUFf_9bPM8VFbwHFoQI_KD7BjrLImj3lXTYfftYQV8Lli45X1VbmywpD2j7lqX",
        "name": "Maison Du Th\u00e9\u00e2tre",
        "latitude": 49.897361,
        "longitude": 2.301363
    },
    {
        "image": "http://lh3.googleusercontent.com/WmSseFdrR-73lg8UUhcqJIGklispH9PN5NKQ65PlOfd8Cw0pZ5mbQzntQMHcCGrJKRyfbGe1iovAiCeceHQH",
        "name": "Amiens - La Poste",
        "latitude": 49.902689,
        "longitude": 2.272937
    },
    {
        "image": "http://lh4.ggpht.com/J4XYcMOW2Oyf7BvqGvcF8mxciHMimvqCJ-NsrKcHLubZtigGSQ-ey_2tfe4UMo0otjWXSBF3XuZz3EkyYxLC",
        "name": "Parc de Monti\u00e8res",
        "latitude": 49.917425,
        "longitude": 2.257178
    },
    {
        "image": "http://lh3.googleusercontent.com/HH3_vqKHkls5csxZoDKtNnXN9iz5-_TPqghHIOlxuAFqwtTHkTxGdolQCft_jXvn3TMf6Lke6xUjYqJkHjjC",
        "name": "Monument aux Morts",
        "latitude": 49.903327,
        "longitude": 2.290432
    },
    {
        "image": "http://lh4.ggpht.com/s0YNBEgSHvAvM_6L-4aezPVOfg3xVrc1mZwHXPka2K99dD7wabJbZE_W1XB-ut2SpkSmwPcJ7CJiKEIOLUzOpg",
        "name": "Tribunal De Commerce, Amiens",
        "latitude": 49.89304,
        "longitude": 2.301644
    },
    {
        "image": "http://lh4.ggpht.com/MFCZXrEDStmOSdI-rb7toOgLy4K5Yb-XQ3LwIL0kGA5Jt1iSuzj01RG0APp45KwVp_FDUazzBFkmCVH8I-l-1Q",
        "name": "Araign\u00e9e Saint Pierre",
        "latitude": 49.896756,
        "longitude": 2.308683
    },
    {
        "image": "http://lh3.ggpht.com/4cnzufRcdravNV1q2kTcM8T-Fs8RnRDIhTL6MhLMXa1tpOHPavseJ50CvHI79C3j1bukGwFCLSFjyPXRrgs",
        "name": "Bas Relief",
        "latitude": 49.889223,
        "longitude": 2.28829
    },
    {
        "image": "http://lh6.ggpht.com/C_WQTdSdBedj2-kmmGcvAmlrk4iuy-4la7d18g0p_L3h9Vv6mZhQeviLasY_ZbwYNkijICQyKhpqkE-lvS45",
        "name": "Dome Tower",
        "latitude": 49.890306,
        "longitude": 2.302677
    },
    {
        "image": "http://lh3.ggpht.com/j0DukUf_FIYaaCZmwYa4yhPn8GokM0xQD0x0zP-piCxM4tGZHUWwakunvnGu_6mtYNGwiFsr0Eljq7DTiaU",
        "name": "Chambre R\u00e9gionale des Comptes de Picardie",
        "latitude": 49.889742,
        "longitude": 2.302845
    },
    {
        "image": "http://lh5.ggpht.com/i2wYpGYqQSTAT8FtTliQ2CceyB739Mkzph5QkNlDP_AdvxqTrKAUECpqj7D95BdCv89KyVUbHAlsFbbn5r5nyg",
        "name": "En M\u00e9moire De Lamarck, 1744-1829",
        "latitude": 49.890239,
        "longitude": 2.29174
    },
    {
        "image": "http://lh5.ggpht.com/kw132E2xK0TgZAuRnISX-mZ_hALZzOZnjjO4qlq81sI8U2pasY3ea1pcweIENoWYhtZhd6_CgDo-TzHPhc5gAA",
        "name": "Monument Des Morts Au Feu",
        "latitude": 49.897465,
        "longitude": 2.28578
    },
    {
        "image": "http://lh5.ggpht.com/tsZ2hYwNmTThiXMpm9XghIGH8m_yz686syOi2li3jyQCpKw9QRM1t8M0vvAs8LhD-73CGvnG7I1NkI3x-Vg",
        "name": "Com\u00e9die De Picardie",
        "latitude": 49.890619,
        "longitude": 2.301316
    },
    {
        "image": "http://lh3.googleusercontent.com/YyBoW11GU7YoSYp8ZEM566yFggD_kxp32jmyvHBumtg6kyYDC-t2B0a_N_elTiheLPT2qFqrXt7Di9bsp-OW",
        "name": "Sculpture Murale Masque Grec",
        "latitude": 49.883448,
        "longitude": 2.326125
    },
    {
        "image": "http://lh4.ggpht.com/xTaNr60rT_xXzvOFs84_cTfro0oUykw4t0J09O04xLyDQtP67_bgSS7Z7Cdky8FlXnH5Dy8DekvC3aHK1qTX",
        "name": "Samurai Wall Art",
        "latitude": 49.891612,
        "longitude": 2.287897
    },
    {
        "image": "http://lh3.ggpht.com/_DJnnJ6y0r2DeEnkeG6XXw0pUPn6VVR4WcKs0E7SbrDzcPyY_IsqA_FV3KatwAXq9ql2GHmxuUM_nHVCxMe-",
        "name": "Le Panth\u00e9on d'Amiens",
        "latitude": 49.888261,
        "longitude": 2.305345
    },
    {
        "image": "http://lh6.ggpht.com/LpiSIEs22MWJ3RmQrfVZtWZxNugOxesD3GcpV8_aWKBlKK-_acYAuxM58HnhEvVLmCftN8dh1EDja_D0OOUjGQ",
        "name": "Fontaine",
        "latitude": 49.893357,
        "longitude": 2.297345
    },
    {
        "image": "http://lh4.ggpht.com/JNUFfLruhiEtIYB79O_swSztPLpq2Dxfx75Qvl_I5BII10upTTR48HiiSX3P6uSAWs3VNzgJ-LPNriMXz5PO",
        "name": "Banque De France",
        "latitude": 49.889759,
        "longitude": 2.295663
    },
    {
        "image": "http://lh6.ggpht.com/pMxpN2RnINqm9Kpahn582k80fErAeGMqvlgc0-i1NPFjPNBjPg3UtPQW-PODTXmTakgtxBz19D0Xctn4Xza8SQ",
        "name": "Armoiries Du Gouverneur",
        "latitude": 49.889813,
        "longitude": 2.296504
    },
    {
        "image": "http://lh3.ggpht.com/T04BnYx4DmTyQoH-e4U6KsoVximJIXmc6-LztCedA-OnYpg64C_m5lUd-Vozg6JPp2EF6xf7gdfpeZho73rr",
        "name": "Ile Aux Fagots",
        "latitude": 49.895191,
        "longitude": 2.31301
    },
    {
        "image": "http://lh4.ggpht.com/Bn5MPqKbWO6B7DvjlDC_h2x_UkLUy9FJ8CQFGee3EpPRMAiZbPh4U8d4A3bRkTJpBolrW5-3rK5inaA6zA2D",
        "name": "Serre Hollandaise, Jardin Des Plantes - Amiens",
        "latitude": 49.901589,
        "longitude": 2.297428
    },
    {
        "image": "http://lh4.ggpht.com/5QOj0qApNL02rL-jXISXkTX4hG8FdJvzvVeqe_pUUwVujKIgeffnHBcRhr5HFEy2noEl3P2PvTWTCcvQkazB",
        "name": "Beffroi Cadran Solaire",
        "latitude": 49.895365,
        "longitude": 2.295925
    },
    {
        "image": "http://lh6.ggpht.com/GYRE0QzzdM0diRG1ecG2tjWqtrOOeX7E8zV9xFufFr80FPhWiH3VWxGqOI-cinXgkdOd9pOU8c1zXGj9Qj5rMA",
        "name": "Le fileur",
        "latitude": 49.894975,
        "longitude": 2.29935
    },
    {
        "image": "http://lh3.ggpht.com/rEjdMGqpf1pVSk5p59DjcrZQ9gykgPVDiB1hn47RAeTi3jYQ9ksLrrNqXx_sM1qqeSgjK7WWZGM97f7qCJmr",
        "name": "Fronton D'angle",
        "latitude": 49.881474,
        "longitude": 2.285072
    },
    {
        "image": "http://lh4.ggpht.com/QX4Tz3LTTcyGGrklmSmhV0zl1K2YsvIhIAIj5L7LNWlIFfVACPIIcko7pEH3NLETIVI77zEu1C74KJQ5FdC-",
        "name": "Ch\u00e2teau D'eau De Longueau",
        "latitude": 49.867664,
        "longitude": 2.362385
    },
    {
        "image": "http://lh3.ggpht.com/DVdsRLhWVAmEsq5TcpbknBJLmw5BUHNCeVm2r3NcXxdEeWs9JyB1Cluu9tCAqJashBKJy7vPInPtj7HOIPAq",
        "name": "Place Pierre L'Hermite",
        "latitude": 49.893905,
        "longitude": 2.303191
    },
    {
        "image": "http://lh3.ggpht.com/T9hewmA45hfr8_zZA2JexwgU9NSXAOJzm3iMUfI_EX_npiKrhdj-JTrsDkjg7pyQSe5c3D8LE3_e__kOX7av",
        "name": "B\u00e2timent Des Minimes - UPJV, Amiens",
        "latitude": 49.898906,
        "longitude": 2.301569
    },
    {
        "image": "http://lh5.ggpht.com/EEqklCHGkZeE7JQHk6J12EgUOD2mMzLpotJB7Ku8vrgmO_66_-s8nprloO8gbpUknsZdJzSNetqcMGBU5hA",
        "name": "Hotel Bouctot-Vaniez, Amiens",
        "latitude": 49.889118,
        "longitude": 2.302683
    },
    {
        "image": "http://lh3.googleusercontent.com/i7UAoZ99pdC0f_3NQNrRvd6xb5jkyEh7tTwrWeLZlaoW7yX8T87DHzcmAJ-UOeyPLSnhpvChl8u87-_K7cvD",
        "name": "La Maison Au Chat",
        "latitude": 49.902108,
        "longitude": 2.296992
    },
    {
        "image": "http://lh3.googleusercontent.com/y9E-Ibg6c_mUdDTN9XLmkeeObC3P1RrRA2jOBaOEgAzZ4A4N8i1tbugFpgJJxNBXp7fcGwIvAOtF36eCwpRC",
        "name": "Ste Clotilde",
        "latitude": 49.889901,
        "longitude": 2.300141
    },
    {
        "image": "http://lh6.ggpht.com/Pldbd8uZ9J794hT-YN8q2Ajw8BEGkRS3Q2yDUsQIInin4VvpYDeLiXjsolEB-3T8pcy-IQ0IMTdquWUEcbNh",
        "name": "Fresque",
        "latitude": 49.874128,
        "longitude": 2.315191
    },
    {
        "image": "http://lh5.ggpht.com/MWUpZV25f3G0K46Kxn4rsZq0OGexIze-hjHV5mr8BXgM7X5PwRzFiOK0NmmdNCwlFrsImUjrmByUhYM4ObOgyw",
        "name": "Fa\u00e7ade Flamande, Amiens",
        "latitude": 49.891475,
        "longitude": 2.30193
    },
    {
        "image": "http://lh6.ggpht.com/9ahlrs7CPbjSgvNoT-xn21pSaHpdBdZ_VeyXpV3NdFoCeaXMnBxxWIt4rv4UbGUVTDTPwrfqqDuXEbCLVVQS",
        "name": "Fontaine Dans Un Tunnel",
        "latitude": 49.895926,
        "longitude": 2.300111
    },
    {
        "image": "http://lh6.ggpht.com/d0BOOeBZ_pGrVtqPvVVN_jJBmPchgFRl5__QDFtg-OJxNb9zifx7diD6ehhrwzN2dCAF1p7nst8Rs8bDCjZs",
        "name": "Eglise De Hem",
        "latitude": 49.901948,
        "longitude": 2.278366
    },
    {
        "image": "http://lh3.googleusercontent.com/JmXw46zIsDEM001dnL_feLKV-sCL-QR62bZsSfAJ169CP9UjSraSrhW_4Wa-Xzr1eJcC9GZniwr-JN3rWZIrCw",
        "name": "Le Porche%u200B au P\u00e9lican",
        "latitude": 49.888535,
        "longitude": 2.287107
    },
    {
        "image": "http://lh5.ggpht.com/hBlVAXrkbFzw4Cd_K2BVp2zpnroANbIcat0uwrnm9sBP67TgCpG6PGBl_Q-5eMYussclmZP1-vXo8ig4tK52",
        "name": "Le Premier N\u00e9, Amiens",
        "latitude": 49.907227,
        "longitude": 2.291036
    },
    {
        "image": "http://lh4.ggpht.com/IBFmRtod44wsD0b__TfyD4Z_e12jxU-N3xMIVhscjmSOOgQaLvqndnVOVugV0I2Q0v5ZAN87--A62qF3vU2g",
        "name": "Mimosette 1926",
        "latitude": 49.894415,
        "longitude": 2.31484
    },
    {
        "image": "http://lh3.ggpht.com/5k9sad40ek4QfUTSpKseuimGiLnddX295eE6VVSsk0EyUjvgKEaHz4vGR2SxDYib3ZtaPa6tISasOFcjXoQQ",
        "name": "\u00c9cole de St-Leu, Amiens",
        "latitude": 49.897736,
        "longitude": 2.304668
    },
    {
        "image": "http://lh3.ggpht.com/ahZcXWbLMhA4PM3IcSa6NyqX022PBtLdKtOyBHy43XBrKULEJu3C-Dk6iCJwxdcT7gltd04qzzRGAt2iIwcKHA",
        "name": "Ancien Cin\u00e9ma",
        "latitude": 49.891854,
        "longitude": 2.29987
    },
    {
        "image": "http://lh5.ggpht.com/nRH74qI7x7agEe_BgJDuZ3TSfKjRpElt-kBx0-d5nE3uEUKqqKzhQ0j8MAKTihbQ4Lvir-jROxKCIr_6bmgZ",
        "name": "Modernist Church",
        "latitude": 49.885791,
        "longitude": 2.330721
    },
    {
        "image": "http://lh3.ggpht.com/9EpiwrXzskmmLwhDTwwsQ75FuLJv1FAVwOqW_4XRWCsTk93osvr7HNIQgtoBaRfknprZWaR5P3piY8VPx50",
        "name": "Amiens - Bustes Angle Sud-Est Mus\u00e9e De Picardie",
        "latitude": 49.890422,
        "longitude": 2.294813
    },
    {
        "image": "http://lh3.ggpht.com/2ZCsTukL-aSlokdIRMi3KLusu7K7jPHQQBNcw4EPJUXc6hfKsV0JmCLiWE6Ep4-iHgEMsXEQmLInrpfgEuN0",
        "name": "Amiens - Les Demeures",
        "latitude": 49.897472,
        "longitude": 2.301107
    },
    {
        "image": "http://lh5.ggpht.com/s-OIWdDVMzf97fMfspvJRjLY9oNIgA-szTv7PKuGiRW8Ho1MHFHn2T-TJahSgOm2KpDndyK8QlD4fZnWf-yw",
        "name": "Huissier De Justice",
        "latitude": 49.893131,
        "longitude": 2.299102
    },
    {
        "image": "http://lh4.ggpht.com/tBzlezojbDBugvjmtIdAxvNaVTElrwaBnzZIyY2hOPmaRP5Wu67UhoieSEz7-90BUE_w0E4dp4vNzcPwlpk",
        "name": "\u00c9glise St Jacques",
        "latitude": 49.895859,
        "longitude": 2.291041
    },
    {
        "image": "http://lh5.ggpht.com/JFURQ9M8RiNtYq0JUP_Bl0pMUIoI8V5kOuh_4l0WnlHHCaLXnJxcidD2ZPp79eokeesJ-5oTQ1Vw5YMB-IH2ZA",
        "name": "Le Chameau de la Cit\u00e9",
        "latitude": 49.875405,
        "longitude": 2.31132
    },
    {
        "image": "http://lh3.ggpht.com/Q2mXD4H398jcZZqvXyms3zTn47XG_ihWFtbe0qGqeKwJxO_uM4mT-yUseX1WLU-qKQFg59kdEr22EPM6R89L",
        "name": "Les Dieux Grecs",
        "latitude": 49.883258,
        "longitude": 2.325772
    },
    {
        "image": "http://lh6.ggpht.com/7-Ii6sMxg2HVTP3ot55C6QblkScDgb9ShXBpKa0RPm_R5_oTiL3Np5B7Acmt3hA8MAGqzSPrkWVhK4lnwuo",
        "name": "Rosace Du 7",
        "latitude": 49.886797,
        "longitude": 2.315226
    },
    {
        "image": "http://lh3.googleusercontent.com/rz-9EW1n0IG-qeZb-YcToJCP8xdI99ssLeTfdLLtDfjAjjzfAEfkb5ZoMujD9T-PZp5pI4PxZnCMtNeDl0Z3",
        "name": "Le fou du G",
        "latitude": 49.901453,
        "longitude": 2.298016
    },
    {
        "image": "http://lh5.ggpht.com/k0pz8-4Vgy3Pv4QZRGtsaAbhc3w3c40fJDzm4CFmfsyUsU90LADKBkTCql4vHYJNRzVqhxtKHiDDxSU1RXZUVA",
        "name": "Piscine Le Nautilus",
        "latitude": 49.910739,
        "longitude": 2.312196
    },
    {
        "image": "http://lh6.ggpht.com/NCTnffkmMQH1L1QiFMRUd97msdIYeC6QfJczjsXePvQpJHIK3NBT6xVBOuMpevn9LJNlUOvq6RuB6UL1sbYn",
        "name": "Porte Sculpt\u00e9e",
        "latitude": 49.884431,
        "longitude": 2.303914
    },
    {
        "image": "http://lh3.ggpht.com/j-HGEskPHZbZdk3Koc6pKBVnsPUE68NV4pwzTVe-QaxYLJG4ofYPEvO9s7ER0CBK2BmVpsHnQ0CoL_1byG1g",
        "name": "La Poste Perch\u00e9e",
        "latitude": 49.874373,
        "longitude": 2.312857
    },
    {
        "image": "http://lh4.ggpht.com/gn5Uq54iQOdhBBu0vMaP4EyvTf_53UqVL--CHqZnacjVC6t-wvAHvpr1n357as274_eB1WB2zwXrx5_0-eWX",
        "name": "\u00c9glise Protestante \u00c9vang\u00e9lique d'Amiens",
        "latitude": 49.895502,
        "longitude": 2.296627
    },
    {
        "image": "http://lh5.ggpht.com/7_e4PvLb8YGA0jIytSiW2yAGqa3kztxgeG5tPRO5tULCpgMGO3vPAUq4NW5RDio5utwMGhUF5K6tgfdjHlDemg",
        "name": "Peinture Murale",
        "latitude": 49.893235,
        "longitude": 2.286714
    },
    {
        "image": "http://lh5.ggpht.com/B_F6lUS_ca3PUmk6_5l9aAqRnRfYj-Y6NLeDqeejz_toBlPUacIBKSSNoOCBZaiGAi_pvSqhhZ3rOMwi11da",
        "name": "Armoiries \u00c9toil\u00e9es",
        "latitude": 49.891113,
        "longitude": 2.296424
    },
    {
        "image": "http://lh3.googleusercontent.com/I4g4WXfiTtMyuCJefFy--aQTIClNA40uPiNZGb8xMVQsH5bc9T9IVUwhiwvEwupAYL_YV2P4ygYboxsbm8g",
        "name": "Beffroi, Amiens, Somme, Picard",
        "latitude": 49.895492,
        "longitude": 2.296155
    },
    {
        "image": "http://lh4.ggpht.com/KJ69-2XZu7_zK_PLZ5CbLXmHADdw5VPDq_J3xCREcBtO9_m9cqgFPcnMDCFTz4UzxDUbOijaRjNEbh3F9vd6mQ",
        "name": "L'Orange Bleue",
        "latitude": 49.888075,
        "longitude": 2.307017
    },
    {
        "image": "http://lh3.googleusercontent.com/0Zi4GqXQoriSw_Ua-_xpJARpP1imPzF3o9RFgtBIy7Bl4tS3JScA8ofad8KH7plKJiFedqsxnjoJszNR5xEOQg",
        "name": "Hommage de l'Amiens Athletic Club",
        "latitude": 49.880843,
        "longitude": 2.302223
    },
    {
        "image": "http://lh5.ggpht.com/qw5tB1tvaUTSt-ysgEJb5eqBbnkXKa-xosjGKp4lZ5xWSOm-bXvtqFdqgBu2U--m5leFDXXiPyTEW8zWPwk",
        "name": "Giant Dachshund Mural",
        "latitude": 49.904559,
        "longitude": 2.273697
    },
    {
        "image": "http://lh5.ggpht.com/qd2_AKAZCi013rf4BdBEBESpHJzioXqaKF6FaQl8cx5PeDEHSC9T3c6WGs1EXQHK5RlHClS-hNOgpUe-v1RJ",
        "name": "Fresque Jules Verne",
        "latitude": 49.88765,
        "longitude": 2.301746
    },
    {
        "image": "https://lh5.googleusercontent.com/p/AF1QipMT5AbJsLSmj1PE_0TH7SxKE9lywhrtxGJZisYw=w408-h288-k-no",
        "name": "Cath\u00e9drale d'Amiens",
        "latitude": 49.898892,
        "longitude": 2.31082
    },
    {
        "image": "http://lh3.googleusercontent.com/3qsBJEwDYIMz2OKPwDpqGM4AejTz3MlZ-4AXmacGE-oEenN85bLRoS-z4VLomXf13V-lDEby-h4cxunSLJ2j",
        "name": "Attractions Enfantines De Saint Leu",
        "latitude": 49.898643,
        "longitude": 2.303544
    },
    {
        "image": "http://lh3.googleusercontent.com/s4ftlz9ayDlTHgJNT-t9QCCBXph2DTyAD0P_d-RkFMZennrJMcaJMNhnvjIyaGNj8V0xYyVYp9s36OHnAzA",
        "name": "Fresque De La Vall\u00e9e",
        "latitude": 49.891968,
        "longitude": 2.309228
    },
    {
        "image": "http://lh5.ggpht.com/jbJCIJzxu_BgDkFjkCkyxNFae0XxZ7JptuuW1XaIsSeytaep4-bUVrouB6KBsZWpqO_Z32FJmIS9uNbuGw",
        "name": "Amiens Halt\u00e9rophilie",
        "latitude": 49.885825,
        "longitude": 2.328546
    },
    {
        "image": "http://lh3.googleusercontent.com/5d0B37g72J5iFMDjhSx2IhrFtIjyii89VX9yA8Zq_Epb1Ffd-kfA7EIx6tlZ9JnKcQpZjF0zrUdimzsrG75dLw",
        "name": "Maison Jean Trogneux",
        "latitude": 49.893251,
        "longitude": 2.296758
    },
    {
        "image": "http://lh3.googleusercontent.com/WmSYrtwxU74Eb9gJMqFAV_xxS-Q69Tr751vkl6VWyf1bsFrk2icWsjgEy6seQtlcyKG6BK-T1W5e1WKFXDTyig",
        "name": "La rose du 108",
        "latitude": 49.882146,
        "longitude": 2.313718
    },
    {
        "image": "http://lh3.googleusercontent.com/ck_WancGxeS8_uPJtmKfSqc_PREkDQgrgkhUl8Roxb4pjP3tW_BCut9_zbVKs6LFY66gatcTVN5-elV6tU32",
        "name": "Plaque 1894",
        "latitude": 49.884014,
        "longitude": 2.326206
    },
    {
        "image": "http://lh4.ggpht.com/u7Q1ZlYTTM1dzXnJRTnMjUncFoQLKtiJNejFcYCQnPfr4-OGNarZuICySiwRulLJ9yREpjfywfO4CsuUkL_gow",
        "name": "H\u00f4tel du Pr\u00e9fet",
        "latitude": 49.890571,
        "longitude": 2.296556
    },
    {
        "image": "http://lh3.googleusercontent.com/914JgBIE7wwbI-3v8583YonJoBMvIuCns2Y0c_8L9uLRsyv9x5WCDKZ4uV5EUgbhCaNxjTZHS_wR9MpJPfQO",
        "name": "Tour D'observation",
        "latitude": 49.878845,
        "longitude": 2.329236
    },
    {
        "image": "http://lh3.googleusercontent.com/2-5Kavk36RkWzoHz3QnixOPazl5km-4Skj6TYpYTRIBHoH79_MRvpJ66DkUTqiLBsqGEasx6G0dH30jintvQ",
        "name": "Gargouilles",
        "latitude": 49.880783,
        "longitude": 2.304883
    },
    {
        "image": "http://lh3.googleusercontent.com/AjUW1NLaqPFB81vJde8x-O4Vu6W_TsEA2asRsvPwmbLIxACnG2dgkfsBDWRMjm0vOVFLLUEJsPu8miBnUcK9",
        "name": "Parc Urbain",
        "latitude": 49.892742,
        "longitude": 2.313268
    },
    {
        "image": "http://lh3.googleusercontent.com/ZeRLv6tPjlpYEHheSX24DLnPaZVoE7RiVK9rLzpc3J2T7ndO6du_a7Tbs1BeaTmRa54Pf1ilH3wEgMb9G4sv",
        "name": "Dancing du Pavillon Bleu",
        "latitude": 49.89986,
        "longitude": 2.274953
    },
    {
        "image": "http://lh4.ggpht.com/30_dq6QVfe5MTEJ3AwOlMGTeyga2-XMVxLDF48AjWHKTxVVZSL1e8rfskp__xjSvwq4ikxiniqI3bBvrnvw",
        "name": "Vieille Fa\u00e7ade Sur Batiment R\u00e9nov\u00e9",
        "latitude": 49.89232,
        "longitude": 2.297944
    },
    {
        "image": "http://lh5.ggpht.com/kS0UcwjH4ldx673dpqWIa-82iwZVxzL1cOypdEclxO5jA5V_xVQ0EjPTjTBXwcdGEKy5ZmpflG3qhjkhDDSW_Q",
        "name": "Th\u00e9\u00e2tre Imaginaire",
        "latitude": 49.89067,
        "longitude": 2.305668
    },
    {
        "image": "http://lh3.googleusercontent.com/QysBrXWV08g7ICeEwvWGWnZHMcyBuPDuj8sJzreovaWFGzEJPKUuJ5ZUDuwgR2WmcY8mMhw4xm6IdxGbwAU2",
        "name": "Aire de jeux - Amiens",
        "latitude": 49.898683,
        "longitude": 2.273623
    },
    {
        "image": "http://lh4.ggpht.com/dQyj8uMxUcCSEMzPtRBAm2PgIAzanw_I9lD0AJCLdttskoqz9KAtRRMUjrJdUzGauO93AkDwp7E-SQjLQ7zi",
        "name": "Marais des Trois Vaches",
        "latitude": 49.877402,
        "longitude": 2.339692
    },
    {
        "image": "http://lh4.ggpht.com/ufFyS0smEhQvd7v8-lrNzPqbQ7m6xJoPLXkndmOdL9fR0jP_UdvwvQTQP4qowx3Orz2VMM7bqESO29jMpaTZ6Q",
        "name": "Fa\u00e7ade des Trois Maillets",
        "latitude": 49.894503,
        "longitude": 2.300844
    },
    {
        "image": "http://lh3.googleusercontent.com/ZcJefHd2yejs8QbB2S_rPEUCegNvgqYjIhbRT89W4LDcgHq-Aji5YJlwu_r9ESXF0BG2WYI3DJevQwa_DBBp",
        "name": "Ancienne Entr\u00e9e du Gardien",
        "latitude": 49.871173,
        "longitude": 2.279868
    },
    {
        "image": "http://lh3.ggpht.com/O6m5yM6vC-WUwX3LwlrGDrmVJvE1vJJ7tqi_Hvs7B5OREUaS82wfHX_BBhaGwJFxnj4I7Z_7iunULva8DzgR",
        "name": "Serre Napoleon III",
        "latitude": 49.901032,
        "longitude": 2.296691
    },
    {
        "image": "http://lh4.ggpht.com/hzO3yw93YS_7FNBnwDdoMkqwe_ovaXMeljEqEXCzKzmrvxdJxKuhOFyYBJHiMm5zXv1R9bquKL8EqVBv_Hw2",
        "name": "Jardin M\u00e9di\u00e9val Amiens",
        "latitude": 49.895274,
        "longitude": 2.302087
    },
    {
        "image": "http://lh5.ggpht.com/fs8vsEV8CEgapo-diuQnmKkqLJP2gI9iv3yN4RwLj2Avk94jUFD8BHpO5LgYvPMwtBLJjKt1xsZaUbrSdyBj",
        "name": "Statue - Square Arlette Gruss Amiens",
        "latitude": 49.888083,
        "longitude": 2.295028
    },
    {
        "image": "http://lh6.ggpht.com/nDZk5NEH7635jI-ph89c34SZLoLaZMhgQD2SOnWwXOxSNMghc1y-lLtI90Tyqg0SKcqbHMwZZUmaV_5dJ4r2kw",
        "name": "Totem",
        "latitude": 49.870275,
        "longitude": 2.285501
    },
    {
        "image": "http://lh5.ggpht.com/W2l9wu4iktVCeVtNYPXqgyC5FsXeo4ni6SLd-Zl6o_DC2veuI048c7WfHHCLfOUtpx09VKJb9UOQAma8iNBqzA",
        "name": "Statue Des Beaux Arts",
        "latitude": 49.891602,
        "longitude": 2.290816
    },
    {
        "image": "http://lh4.ggpht.com/FL5gS0P28nQrU6ECdW6vC8oNvz-EVn08U5X_XMaXFQ3j2I-920GR_y_c21q4AzL-D6eImb8dlPasItnGM60H",
        "name": "Plaque Jules Verne, Amiens",
        "latitude": 49.887977,
        "longitude": 2.300585
    },
    {
        "image": "http://lh4.ggpht.com/MdV5Fs7JGJ77yhQ6Q0Gu-FuzpXLPJ04sdOdb6xrfDroxIbYBiMHLdGnxPYsADtYy3dZoS9jEwNTcfnErGwp2",
        "name": "notre dame des anges",
        "latitude": 49.885903,
        "longitude": 2.306301
    },
    {
        "image": "http://lh3.googleusercontent.com/_wovAKmTpgGHm2FOpnDyFuEuvK8ddPeOuULH4tn6DaxBdwI3dB44Ms4EqNxyCrVKHYB5UOHFJrVPmPXc5uM",
        "name": "Blason de Beauvill\u00e9",
        "latitude": 49.894991,
        "longitude": 2.309788
    },
    {
        "image": "http://lh3.ggpht.com/0EFKv2qHwbJ8CwY81-wpxdms_dJlA4_ARJxb3DgMfKnAr9mwEgJG3dXtmTFN5h4vmlFle2-ibfGkscV4A1wEVZy4zz3kd5OB3aAruVgkOhsQ24_L",
        "name": "Cour d'appel",
        "latitude": 49.892495,
        "longitude": 2.302009
    },
    {
        "image": "http://lh4.ggpht.com/FyYxp6nBcECOIHkfSeGyRfvfuTtqFp-NPyX9vWlLomHi--Va0odWBXD7M_0lhr_Ksaa96gF5En9GaA9984fD",
        "name": "L'aigle imp\u00e9rial",
        "latitude": 49.889463,
        "longitude": 2.297164
    },
    {
        "image": "http://lh3.ggpht.com/5I4JdP9ndXHHE3K2z1qJmNN8B2zHWSX5oM-aYepcr02Noxso1iafVtYTn7Py73vwqdZj95OFshEHylDV_ihHHKtbG6xBP5Hh00XDvl0S0CjirXj2",
        "name": "Caserne De Jean, Amiens",
        "latitude": 49.888511,
        "longitude": 2.311894
    },
    {
        "image": "http://lh4.ggpht.com/nbrOXZBc1ZH7nlglrTNOxlcb8gGT6Neu67pUUua4UAOO5UD4zzOCWN6rMOEVJxAvAL_jh1NfO4D8ObQFvrQ",
        "name": "Le Porche Au Loup",
        "latitude": 49.892097,
        "longitude": 2.302267
    },
    {
        "image": "http://lh6.ggpht.com/X3TXPWX1eWnJjVP-2tIJOnIIxVTEiSKi-HK2FnogpNuqTwqYOsSxQxf67mN5G_3zKCfRw6iBV5VWPfpkUjc9",
        "name": "Statue Lhomond",
        "latitude": 49.892283,
        "longitude": 2.290098
    },
    {
        "image": "http://lh3.googleusercontent.com/pY3qBSOR0qixRFkNOBQMtqv9vt6VcG3X6DR6jL51c9iHIbcHO45KhBdD14RnEKma8bCI6CaZ9ZSK2xn_WPTZ",
        "name": "Gall\u00e9rie Des Antiquaires",
        "latitude": 49.897131,
        "longitude": 2.305799
    },
    {
        "image": "http://lh3.ggpht.com/zH21AJ2gAmQvI-sFae7oLA9JIActi1DZI1aaXZlXORYgqzAkIawpeYTjGemglCzdORc0VZg8owjU8zMuXkiJ",
        "name": "Ch\u00e9rubins Peints",
        "latitude": 49.894407,
        "longitude": 2.300007
    },
    {
        "image": "http://lh5.ggpht.com/96mFGAI_fW5yYEYQNvXYb5ES-jzOmzmDsV7pnUXj3ziEupT1aD1BR0sm0k67wbSzbOT4Dbdy_UKzEkNr2dmK",
        "name": "Historic \\\"Double B\\\" House",
        "latitude": 49.890705,
        "longitude": 2.290523
    },
    {
        "image": "http://lh6.ggpht.com/mP0ddRmoCN9gbbgZj1wg3F61zlMICndqC0heJYmTo8wENSk_0a_SrnV0ihYCmOnldQz7-sWMl4ZI_vG-c5I",
        "name": "Saint Maurice Church",
        "latitude": 49.90358,
        "longitude": 2.288232
    },
    {
        "image": "http://lh3.googleusercontent.com/T1zrOOg4kTeo7Hu3nJJNqjMhqXLPPatvvaTG2qT7PUuv20ng_-2Ce6ZqLjCR39vOND-IE3D2xfEjRQ67uXbW",
        "name": "Jeu d'eau",
        "latitude": 49.892542,
        "longitude": 2.313949
    },
    {
        "image": "http://lh3.ggpht.com/kG75zXHZ0jBQcnXTMsLu6c36MG8-ZTwH6OyDMFrFAfpBLquDCRzo7r_GOBiMrcZ13inzOsI3DiuxsFmNgM_k0A",
        "name": "Conservatoire et Auditorium",
        "latitude": 49.89175,
        "longitude": 2.291221
    },
    {
        "image": "http://lh3.ggpht.com/zjU3vNvVrbraXxOTKU9DikfX4O0FR_GX4Oj9YDHES4p9JDOIcl6PjykFMIhzsc1U725Frn_yJSPljuMdAd4",
        "name": "L'\u00e9glise Saint Germain L'\u00c9cossais",
        "latitude": 49.896422,
        "longitude": 2.296247
    },
    {
        "image": "http://lh5.ggpht.com/w-Z7HsMYfOorKWrTfWXfmJxolWvMFH7R79r06cdEtd8F42mXpj9hShG4d2XsjR56ryst1yTUYeGU8LKHIDgyVA",
        "name": "a la m\u00e9moire des combattants du 7\u00e8me bataillon du r\u00e9giment royal du sussex qui resist\u00e8rent \u00e0 l'offensive allemande du 18 au 20 mai 1940",
        "latitude": 49.883884,
        "longitude": 2.262029
    },
    {
        "image": "http://lh3.googleusercontent.com/SpeypNfyalXqKh-y_FzQUQmeqmfWSD0FAzAQOLWa1RGvQD07OqPea078-A9UpiwmPnY67fh8STWhSLfuiqIl",
        "name": "Le kiosque de la Hotoie",
        "latitude": 49.897503,
        "longitude": 2.282023
    },
    {
        "image": "http://lh3.ggpht.com/qDBPKWsfV0BUIonAy6Zke1lsBR6KBoe9oaROmW6VgtsJHYm2INFjY0jM9hXF9uyNWrN4ibMAPgKSpCMi2LeB",
        "name": "Biblioth\u00e9que Le Petit Prince",
        "latitude": 49.877974,
        "longitude": 2.326631
    },
    {
        "image": "http://lh3.ggpht.com/4RGPXaCOMCKoRTOQ0bxqB-bl4l3vrxu6a8Y3HoY5_8J5PlkJbhDg9uoiHoAiwHRdAHCbdcnvLkGlkoIwMroQ1w",
        "name": "Parc De Jeux Du Coliseum",
        "latitude": 49.895075,
        "longitude": 2.28713
    },
    {
        "image": "http://lh4.ggpht.com/3ee27MS4un8T-d_7hbuCJA6E_lTHh4pkRo7f5YRcd4TL8aRv2Ovxf3ICBxS5Ak2fg3QSXEt2J-9wxXufvBg",
        "name": "Plaque",
        "latitude": 49.892428,
        "longitude": 2.303505
    },
    {
        "image": "http://lh4.ggpht.com/pe_tz1q7cVvUfJm4HFE3yG5Q-aeeD-Nwsnf1S9DQQ1T8T7UCVmeaqM0Khis2U7b4GV-pgSU1_NCOxoK7flPVYQ",
        "name": "\u00c9glise",
        "latitude": 49.893035,
        "longitude": 2.305662
    },
    {
        "image": "http://lh3.googleusercontent.com/tLWoJQ88zTaKddAodV-Iy_gX53s5VoLcTUk9PLqW9uAo3BRHiZ1O1DCW3KPQVIykkFEdeH6fScI9Am7qxw",
        "name": "Th\u00e9\u00e2tre De Marionnettes Ch\u00e8s Cabotans",
        "latitude": 49.896829,
        "longitude": 2.301709
    },
    {
        "image": "http://lh5.ggpht.com/8uyJlzMs8qe59khLBfWOTRhvMWVnxfKEIunC_ohGPaQsar-_985mKqzrAvi6KnbvMOiq_bZ1KCSbFbh6JS8",
        "name": "H\u00f4tel de Ville De Longueau",
        "latitude": 49.870141,
        "longitude": 2.357319
    },
    {
        "image": "http://lh6.ggpht.com/VcPJXc3tFrG_JUWez_PFfY4zWoTplMYhND3pr7lpmFgCe6ar2QihU77gxWcvv6SKokfkbCEOdUOKytFIi4Ho1A",
        "name": "Amiens - Ancienne Chapelle",
        "latitude": 49.898706,
        "longitude": 2.300418
    },
    {
        "image": "http://lh3.ggpht.com/IRplGZR1YHuTGbk1mY-OEI_ilA3rbp8FFsrcRlHVhgJmVNTJ7zCV8PpCNTB-5NJF6st1oK7-5f_ccmJnFpE",
        "name": "Aux Martyrs De La R\u00e9sistance",
        "latitude": 49.891179,
        "longitude": 2.303849
    },
    {
        "image": "http://lh6.ggpht.com/GlklQ0BN_i9IksZc_dTjoLaNAWwGDEurOWSFnMyN_ZhW8oAZPFGH3gcSqFmKe4BZ_foCCfb0fGLEVp7wcN4",
        "name": "Jules Barni, 1818-1878",
        "latitude": 49.914386,
        "longitude": 2.285688
    },
    {
        "image": "http://lh6.ggpht.com/PjO45vdGf88R6CqZjfu_7W6p47cKrKRW32sm03a-S3cMAmCvasH0TgAs5VCl5qnCKErpPUu3K-nxVrqzsYuhDg",
        "name": "H\u00f4tel Particulier Historique",
        "latitude": 49.888592,
        "longitude": 2.291976
    },
    {
        "image": "http://lh3.googleusercontent.com/ttk-xg08goNtqwElomgZFgbTqktFDOTZriYvS9KV041upCTVOzrHNgj4DQ9xhRD2-OteDUiP8EUFSAEoUpt2",
        "name": "Le BMB",
        "latitude": 49.893066,
        "longitude": 2.274593
    },
    {
        "image": "http://lh6.ggpht.com/iqKjIPznKpRPP1NArzPqawvdwdtPVNB8ZCEdWHOPIeF6oAQFC6vTmgjFLeSxC-rkOHrOOhHgr9ggaviTUgI",
        "name": "Croix De La Sainte Famille",
        "latitude": 49.889653,
        "longitude": 2.307828
    },
    {
        "image": "http://lh5.ggpht.com/J2kvsJ62nG10-DoxZVQb2Jk5VCXZbSnQPv1aAoUC7nGmfDaX7L0oiJu9_R2JhFrfsITivI-nAYZktrBw7He8",
        "name": "Fresque de la Ferme",
        "latitude": 49.89301,
        "longitude": 2.28969
    },
    {
        "image": "http://lh6.ggpht.com/BQPhwEUi89JvTC9GN4ryxXZP0XdZqx8FuEKQvR9MeF_MJNTC85QbCJSslXRP0e1uX1hKv5Q0rLAXQTY2gtUw",
        "name": "L'aquarium",
        "latitude": 49.911561,
        "longitude": 2.300441
    },
    {
        "image": "http://lh4.ggpht.com/FCfTV3pUZatfP6SfzPJipFA_cnA9vJVdmk725kcI3kvq9cR8IwuOLYfW09FuvyaTdw-0Q66hXYdbc8t09FlQ",
        "name": "Le Crocodile",
        "latitude": 49.894683,
        "longitude": 2.298909
    },
    {
        "image": "http://lh3.googleusercontent.com/sMsE56H4AAuuxdMUAl-lUsZqfb7-PQn2bWhI3NdQmdSjjNyRWYnqW_30rYCbc6GJ12RIkMtObG0qGM_va-zR",
        "name": "Les Cubes Rouges",
        "latitude": 49.89133,
        "longitude": 2.31101
    },
    {
        "image": "http://lh5.ggpht.com/7kYBvXVg-OHyWiTpPgO_do_PSMH9psPstT7LTMMzbxkAhq3qofMKUKZHTL_KAC7LWX8FeUmNIt77dQYTjU9RBg",
        "name": "Place Vogel",
        "latitude": 49.897613,
        "longitude": 2.295387
    },
    {
        "image": "http://lh4.ggpht.com/xMMQktDESXwOzJuXlC9dUc46lBUCGqKnaJvtvH78l2uaw1hf1W963bhvGTifdsyhAA_ixmzXeIAuVP4c464",
        "name": "Restaurant D'application",
        "latitude": 49.884311,
        "longitude": 2.294729
    },
    {
        "image": "http://lh3.ggpht.com/PNQN-YayquQnkST1njO_jCQUFqHuDqiTh0RwKuM07PmjGVJAM0_y9N7U-ti4FjJ1R-esZhZS4e_9G3kLxWo",
        "name": "Les 3 Vierges",
        "latitude": 49.894712,
        "longitude": 2.291263
    },
    {
        "image": "http://lh5.ggpht.com/HXSWi2rvbeb-BvyxHVERr_TqVFeGMtc2VwvLAaRvFZdns87IM_7i8jBO1zXcmbZaF9pUcSfTQ2lL6T_VTqRVNg",
        "name": "Portrait d'Albert 1er, Roi des Belges, Amiens",
        "latitude": 49.889127,
        "longitude": 2.29532
    },
    {
        "image": "http://lh5.ggpht.com/BPhstIZUirm_wNIlKl8wwTZOxr2dnusGfetO5P4XFMKRuEJxqegIR11s8IUXMjbCgJ9PNIYgA-qaehq7-i54Tz-9FyUHZH2PSq4m6keGAPrvllWC",
        "name": "\u00e9glise Saint Martin (Paroisse du Saint Esprit)",
        "latitude": 49.885447,
        "longitude": 2.30048
    },
    {
        "image": "http://lh3.ggpht.com/lSm_n-IOSt-6V-f-LWLaqrkoP0K0vuy6y1aTUvbQyer1Jy2BZkmiYaJ75K-OEOasiQAibwQfGot9WrBLhGUX",
        "name": "Institut du Monde Arabo-Musulman de Picardie",
        "latitude": 49.897259,
        "longitude": 2.289897
    },
    {
        "image": "http://lh6.ggpht.com/Pse4ygNVWNSfc5udJE3cwr3xNztkM478VFgEF2gtXua2RPZWIqVuDmDXOaQGpUUvAxT8gUtVghv9qe_FEDAH",
        "name": "Lion Gardien de L'entr\u00e9e",
        "latitude": 49.885873,
        "longitude": 2.297425
    },
    {
        "image": "http://lh6.ggpht.com/CMfMSqfXB66H-r3VJolgRTJohpcvQFARn5vL5YTyAxyGbSD7YWzgbDF7UIjvNpysFHl3xOvasSm3my0j7RQ",
        "name": "Fleurs Du 148",
        "latitude": 49.884315,
        "longitude": 2.292055
    },
    {
        "image": "http://lh4.ggpht.com/fBhqSJdFNdG5YpqPHEkCgpLQuuZhhBZHPF_m3E6UOxhTXg5KGOpwnZ5zimgVDhMGbvUkTiekxCryr5z_-PiQ",
        "name": "La Borne de Camon",
        "latitude": 49.887056,
        "longitude": 2.336484
    },
    {
        "image": "http://lh3.ggpht.com/c9yQ2zpVRSaUV5lKzYHp5roZObsiQdJiNW4vbdQe859DiBSLvDeZtV2DdoL_N_a_3p9VuYH-MOqzZRKiL5Fu",
        "name": "Fontaine dans une arche  Amiens",
        "latitude": 49.897024,
        "longitude": 2.297288
    },
    {
        "image": "http://lh6.ggpht.com/S7RtNn8M8EDX2i51y_ATbhZeSIKDNYCHtOSlHnO5rc6jpFN5B47gNrzJrRhlrmbxachU-O58VWltYJnlF_pz",
        "name": "Les Pingouins, Amiens",
        "latitude": 49.900029,
        "longitude": 2.275661
    },
    {
        "image": "http://lh6.ggpht.com/EXSbf6FFe0YT4x1YgGgbfJ47Yzo89qxFLZepi2k3BECH8sPwXDZzYaKBQO9XVR6bsADYAdEpkN_FqShrMX6wKg",
        "name": "Clock On Wall",
        "latitude": 49.866934,
        "longitude": 2.379886
    },
    {
        "image": "http://lh4.ggpht.com/KF5UugBgqmJkTSJJjfwZxXwXR3fg-IWKDrlJLMGuBnIO5ipVAkORwwSnsoUktCNyap21GQl7mYV7maucLpVOIg",
        "name": "Amiens - Club D'aviron",
        "latitude": 49.895913,
        "longitude": 2.306492
    },
    {
        "image": "http://lh5.ggpht.com/EpnW43QqLSLCSu1E9HwnRdYGm3Dqi2khelk3KWocj67hKcIO064G_SQUlrvXrK5XfDcOJyoQEeCJU0k6xJE0",
        "name": "Fresque du Centre Culturel Africain",
        "latitude": 49.897545,
        "longitude": 2.286852
    },
    {
        "image": "http://lh6.ggpht.com/dpFEUI8Yp7YfHfECCxUx8q5tTh1YnzJZ1IOUvyXtW0OoXIi0L3z5isGJWfFoErdtsN4FCHbQwDkvj-buFCz0",
        "name": "La Cath\u00e9drale",
        "latitude": 49.894019,
        "longitude": 2.321155
    },
    {
        "image": "http://lh5.ggpht.com/exliNBZyW6MkDt7cuIsaz2LlT5brdpf22rmqWp3ybgLnOZQ7ZvoFGwkYUSVSMQyhsJqrsLK4EbmhyP40EC_YpA",
        "name": "Human and Lion Melted",
        "latitude": 49.891345,
        "longitude": 2.301377
    },
    {
        "image": "http://lh4.ggpht.com/Oi9ra9ZE52VX36oGhIwiQB-xD8AFkku49Y7_L9XNbC7Sli3n6NdXPDeAcemXZlofQlDs4GG0mfj8tbbXl3OJ",
        "name": "Chapelle D'Auteuil",
        "latitude": 49.886738,
        "longitude": 2.297253
    },
    {
        "image": "http://lh4.ggpht.com/cdM8WpJB2BVZYBwOjZIKK4tJnsTMF650yvm6t0EYrQcVoTo9UtQYZW-EQ-6VUcK-n-3jO4bNgMseM_fe7Qf0",
        "name": "\u00c9glise St-Leu",
        "latitude": 49.897594,
        "longitude": 2.300886
    },
    {
        "image": "http://lh3.ggpht.com/i-3Zw7kuGNzhWit_hTTKr3DpIyCM6UbieV6bZj-k2oNQWn4N4OGS6F1AR31Ogu9yMeKjIOV8kmJ9xW98Fg84DQuD1S3FGw4UsbKUXBEVuv5w5zc",
        "name": "Amiens - Biblioth\u00e8que Communale",
        "latitude": 49.890003,
        "longitude": 2.294913
    },
    {
        "image": "http://lh3.ggpht.com/B9m6sOUizHuBRPVp75E19qvIaj1xjSa9ECdBMcRM4SjBmSIYal5XZ5buAPjH74bYaBrFL3mfkZLNfdUHssE",
        "name": "Square Aim\u00e9 C\u00e9saire",
        "latitude": 49.889045,
        "longitude": 2.305608
    },
    {
        "image": "http://lh4.ggpht.com/CdpPPCmuG-xQuFxMTDdf3B5DZ-NdcpMWRlwyFTSECFONx8lWiMjal2dCyO5YnGeluOUCIOAXNlc-KwQpvgIh",
        "name": "Plaques Comm\u00e9moratives Lemaire",
        "latitude": 49.885278,
        "longitude": 2.279879
    },
    {
        "image": "http://lh4.ggpht.com/Q8iqRL8l7gvL7buxh5-WR3CSc2luxAMwvx3vAI3IB0PRdi8MEjPTcJVDIauSWujcfs7J-Un_Pe3HiIR_gqM8",
        "name": "La SNCF A Ses Morts",
        "latitude": 49.890293,
        "longitude": 2.308296
    },
    {
        "image": "http://lh6.ggpht.com/u8ENFS1buW5hjO9T3qo2RpclBgVwPRtrTyr5jouyhiVC44mcFelB4hC1P5yMu7MY9hVEgZJ0BWPYOdSZzT0AZA",
        "name": "Plaque Comm\u00e9morative",
        "latitude": 49.88394,
        "longitude": 2.281721
    },
    {
        "image": "http://lh4.ggpht.com/oGrzATEk1CtRVhgY_ZSqN0NFrq1qZf5k-x3F53Te3_uwVkPs52RDqqzrRcsTVUzrpVJMbDTkeBOgX1S4pRS2VQ",
        "name": "Vieux Chateau D'eau, Amiens",
        "latitude": 49.897966,
        "longitude": 2.293913
    },
    {
        "image": "http://lh3.googleusercontent.com/_ddXa3PVxUtf76IBuz_Zou4plafUanZzMdQkQTcfjO_1kmqMul3mnsT2Jf4sLrffdYWOROT0urwODCK9PLaD",
        "name": "Anciens Garages St Christophe",
        "latitude": 49.882432,
        "longitude": 2.326161
    },
    {
        "image": "http://lh6.ggpht.com/DbdXvpPLyx2E942-bo_1wjBsANRvOnZGEnlkXdKj2rm30BWEN__JFGOXe4gabUMgDBth7lRyGrku8zMLS-Ga",
        "name": "\u00c9cole Notre Dame",
        "latitude": 49.894862,
        "longitude": 2.304426
    },
    {
        "image": "http://lh5.ggpht.com/AnPrlu6vJ9rBcZ9sMXWAGoi5ek2euqDVbEhtA20x5dZaT8vADhjS7liRHnu5zzGVuseXLKLBWWDxqsDC6Dt9",
        "name": "Fa\u00e7ade Des Nouvelles Galeries",
        "latitude": 49.892666,
        "longitude": 2.298704
    },
    {
        "image": "http://lh4.ggpht.com/GQXHG2dtVxmZct6n5KS5FGu19nZ_Gg6HNWn5UKBp15zjrGKBfaRT5mhjfcYxoj7P3jgKc1B0hOsbMrap6hIgLg",
        "name": "T\u00eate Du 84",
        "latitude": 49.886014,
        "longitude": 2.292719
    },
    {
        "image": "http://lh3.googleusercontent.com/WeDh7u6L_7NZrDcd3fkF5B4fkpe_ECfGNYcgqFPb_oVIUcQJTzoNty8GI0b9eYKAaviu1yFyo1GiSPxhMlo",
        "name": "Mimi La Fourmi",
        "latitude": 49.900521,
        "longitude": 2.29687
    },
    {
        "image": "http://lh4.ggpht.com/pBoNLH0VYLj34JvhBILCfYNSHmOgr4bOLpgSJ-nL24HoDv_fpJy6xGPV6YClcASJVgFhGJpoEpPWTkFHlUY",
        "name": "Ch\u00e2teau D'eau",
        "latitude": 49.86616,
        "longitude": 2.350618
    },
    {
        "image": "http://lh4.ggpht.com/AuSmKED8Bt-8f1LA3dVVHWjr0EYAF6iJ49A_Pk8kBR5vNJ5MlfnmS2cuqd1H-EtLghdeEWbz1H_fJFIvQN8tLg",
        "name": "Parc Saint Pierre",
        "latitude": 49.895489,
        "longitude": 2.309272
    },
    {
        "image": "http://lh6.ggpht.com/A5QuGFnv8m5annZJns4Y9JKTnHAWMQmnIeMepDLTTOJg190LAY-xSCRW2eEcX6WjDMa4fWUSmfjKHww_DDEwvQ",
        "name": "Memorial Corine Seguin",
        "latitude": 49.889751,
        "longitude": 2.289552
    },
    {
        "image": "http://lh4.ggpht.com/d3GV5XtBI3sxahvIUW7eRn94x_h_TPtxxSwY1dGSprKssT64ad6wXrf0i6Qk_5owGxYD_StW3Jdswjx9nAAnxQ",
        "name": "Labyrinthe Du Parc St Pierre",
        "latitude": 49.901267,
        "longitude": 2.304131
    },
    {
        "image": "http://lh4.ggpht.com/xJBGR6rAq6dgsyUxwJgA4hhZuRBc9wAMsf9aVb7cFk5ZIzB-4J3WHLYKLQEFdKOhap0p29A4Pha-z7iywH23",
        "name": "Jardin Urbain De Plantes M\u00e9dicinales",
        "latitude": 49.893657,
        "longitude": 2.301398
    },
    {
        "image": "http://lh4.ggpht.com/t8nQz_bbJPfPgF-77qGNK0MN2pKpXzgC-JTJr8LnRRwv6YSAMTvkhvpLJ-VZHwA5tTcjzDHOknihTW7XaVBA",
        "name": "Porte Fran\u00e7ois 1er",
        "latitude": 49.903915,
        "longitude": 2.300297
    },
    {
        "image": "http://lh5.ggpht.com/QnxV9TQPHi0zuMoBqjkSJQyL1tIjGs4_Fk6C4bQn7yzbWAes7fAIyQtFAJgobpEVBaKwbub7DaMWztp4UVOh",
        "name": "Fa\u00e7ade De l'ancien Th\u00e9\u00e2tre Amiens",
        "latitude": 49.892412,
        "longitude": 2.299916
    },
    {
        "image": "http://lh3.ggpht.com/J45OSD5l9WjklbrprcctmNwMrtWIU7bPmMy-D7h1HfHCUd2eLGC3AU4zCBNZJ1oLicyEVd-wrhGjUgwLEPMj",
        "name": "Virgin in a Box",
        "latitude": 49.892276,
        "longitude": 2.305323
    },
    {
        "image": "http://lh3.googleusercontent.com/58O_mKUz6WTQPMcnUhqFHrtUd8L7A9fY3jNWcyIUPxngKMqi6kLwjU31Lzle24KKukx3A08j5DpCnftQOd8",
        "name": "Aire De Jeux Geante",
        "latitude": 49.922645,
        "longitude": 2.308667
    },
    {
        "image": "http://lh3.ggpht.com/bXK4KCcpXG7U5u3h_pCRo3a5sPZgkBKNm6B4qgreyD4UoY-SVkyxtWYnIbS90awMCBU_XjQVcy1X6wK37dg_",
        "name": "Fructus Laboris",
        "latitude": 49.882748,
        "longitude": 2.307508
    },
    {
        "image": "http://lh3.googleusercontent.com/A8izyLs7IM5oy8rTD2dOqZv7leLBii6hABvu1ZjWKesIDv4UcYu4txAjCUD1bXGt3y9plTmhk80yyW6WRSOn",
        "name": "Amiens - Ange de la cath\u00e9drale",
        "latitude": 49.894643,
        "longitude": 2.301705
    },
    {
        "image": "http://lh4.ggpht.com/qa6ggK-xdl0iT6t8epS8i-Nu_Wz_wol0w_Ig0bPaAvmJk3VAD149qJ6dtacKix_DHbHPt73oale1tuLrKgyt",
        "name": "Fresque",
        "latitude": 49.873625,
        "longitude": 2.314998
    },
    {
        "image": "http://lh3.ggpht.com/_96iyM60kXuV4VOr4DFj220lg1la6vHxgGT4kgOi_qOc-EeZeZU64e_n-rkrW5bEnTNCCQmSZ9cKbHX5qxF5",
        "name": "Christ Aux \u00c9pines",
        "latitude": 49.877299,
        "longitude": 2.314948
    },
    {
        "image": "http://lh4.ggpht.com/BAZ-hfweTPyWLLO_1GaS6lg7HYtf65MLrkxKR2yabnEs1Hrc5K3iWW0P8hNKdJNfjGSPFLMJk9F_Mv0N_DVD",
        "name": "Facade HUBAULT",
        "latitude": 49.892505,
        "longitude": 2.295988
    },
    {
        "image": "http://lh3.googleusercontent.com/wVITWYNuB0rWICuu9kIT098PeLMXMA73O8VATX5LBXKKg010FRZNIuJgAzvU0ksH1vdYYb9t0hSduL-b2lBl",
        "name": "Pomme D'amour G\u00e9ante",
        "latitude": 49.922911,
        "longitude": 2.305872
    },
    {
        "image": "http://lh4.ggpht.com/J32rM6LDHoTZwzbmuBuxmI4ku6TfCnpYmmCqACvM07G0rcQ24ntpKS_codbRgRIg5lbPYAtQ8ulxRWxbvaeB",
        "name": "R\u00e9sidence Des \u00c9chevins Art",
        "latitude": 49.887788,
        "longitude": 2.318067
    },
    {
        "image": "http://lh5.ggpht.com/2Q6m5GDhi-pwFGWcw6TDDTDq_TN8KyhqwEtFwtgq-UN0sOvXmJumwAQpr3ZV5S69xVPDPMH8-WoLGTfmMWH8",
        "name": "Hotoie's Spider",
        "latitude": 49.898566,
        "longitude": 2.275662
    },
    {
        "image": "http://lh3.googleusercontent.com/96yxt7NZZGFwq9cv7mGT6oveRRnG67pyDzP4Lyv99nqBWjFNzM7nMFgGBLlveOADf8eZvI_Ya7csOAcp8uVt",
        "name": "Fresque Murale",
        "latitude": 49.903348,
        "longitude": 2.306592
    },
    {
        "image": "http://lh6.ggpht.com/wmDpf4Extd-Cuk_2Mz6dw5MtlVXavPOyjYHrae9kvmAfNNgs7kwa-0V4IhBuoG54uEShGv0KbWoM8wytNV8Now",
        "name": "Centre Culturel L\u00e9o Lagrange",
        "latitude": 49.897673,
        "longitude": 2.296873
    },
    {
        "image": "http://lh6.ggpht.com/mbwq8yEbuZ8qxgXFzYltkpqS5-HkOLHiLUCEoZ3tYs44dH_SPIO6LWHVVzFfP2kBP-gY160arYVcG1Nj2CO6",
        "name": "Historical Bow Window",
        "latitude": 49.89341,
        "longitude": 2.300696
    },
    {
        "image": "http://lh3.ggpht.com/YkDK5MNO6TNlAcGfW9LGjrJUXgZSfRvSb96I_e6BRzOtLEjFVcD9ub_jp3WQRxY7IwyA0oIfSKGIyeVoU-R_",
        "name": "Fresque Grand Canyon",
        "latitude": 49.896347,
        "longitude": 2.293068
    },
    {
        "image": "http://lh3.googleusercontent.com/Wer8e2SLtF7AeAUs2oY-4UYQGgP-nt1OlNeY_8sir0v4HfscrmBpx-SoSIbNTB7217sct0szmKwXw7gmipp9Kw",
        "name": "Street Art Courrier Picard",
        "latitude": 49.890547,
        "longitude": 2.298315
    },
    {
        "image": "http://lh6.ggpht.com/3JkJy9lVfkhbZM-ehhaX8DRWRtSsyjeGLYsEVIYm-S6SQf1z3eHg96ZklKBR3CEt-EmdvQ3e15ecu2uXvb_cvA",
        "name": "Porche Du 151",
        "latitude": 49.886616,
        "longitude": 2.288407
    },
    {
        "image": "http://lh4.ggpht.com/x3qsStlE5mce0G5h_tZD1C54y6HzCPuTT55s-jDYB1hwBHe-QIMZ6h3H4AGGZV515EDFXWJ9-IWUW0VLRWg",
        "name": "B\u00e2timent des Archives",
        "latitude": 49.890942,
        "longitude": 2.295403
    },
    {
        "image": "http://lh6.ggpht.com/Muvxe4fUfAO45pY_odOD5Cj9KIDG1EN62bD08hjQjv6HcXBz82MeEIQBVy18DMWX-g6hjlvYdDWDlyP75I03",
        "name": "Terrain de Street Hockey",
        "latitude": 49.886468,
        "longitude": 2.327349
    },
    {
        "image": "http://lh6.ggpht.com/9HYCk87k_KbJe00b9bdU5Joc5Xuuf3t5In4qa1ny6fB8nqKpM7TmTgW5U2rKKjJRMO0zsj9YKzqegp1S-3JUzA",
        "name": "Amiens - Totem Fac de Sciences",
        "latitude": 49.898453,
        "longitude": 2.299609
    },
    {
        "image": "http://lh5.ggpht.com/lcBNeTO0JNnPzeIq_cFlhc73MW6gySYkeeCpBfhrnKxu0LYV8fDIyg-FPw5t5VWjtxNNYrK7aKMOC4NfHcNh",
        "name": "Gare Saint-Roch",
        "latitude": 49.893434,
        "longitude": 2.283748
    },
    {
        "image": "http://lh3.ggpht.com/xssXUP83yplEwlXGz64mR_BZ46ab-7qKlVaQ9KOR5J8w4jtNFjjtK2_24HkJS-K9s2pqfx-fzwaB7ymCXRU",
        "name": "Ancienne Borne Kilom\u00e9trique",
        "latitude": 49.898969,
        "longitude": 2.305795
    },
    {
        "image": "http://lh4.ggpht.com/XoAwQgJ2qMRda9cLlznRbDCdSXwX_ARr-BBUOdWG4R7hz0iizhyxgAwp2zaPd0IAMdDxHTY4YoiSl2VsHEwO",
        "name": "Mediath\u00e8que Leopold Sedar Senghor",
        "latitude": 49.873313,
        "longitude": 2.312468
    },
    {
        "image": "http://lh3.googleusercontent.com/6Ax9Y2zPzOW40w8HbZ3LZO4lThe4hhbQR1C5yn_Vr_iJDSurWqpaeZfd8sQ5pTq1QCGoE-kQoErB7HB940c",
        "name": "Maison \u00c9cusson Royal",
        "latitude": 49.884502,
        "longitude": 2.321475
    },
    {
        "image": "http://lh3.googleusercontent.com/O7MA_CLKwIhRs5JUezYt2xaCdCul1lRKEvH9IhMtOHJPeY3TQPhcO8kVR7bMwlb3c7bYaVX42CDkssaq-rT5",
        "name": "Parc de jeux Dejean",
        "latitude": 49.888332,
        "longitude": 2.31146
    },
    {
        "image": "http://lh6.ggpht.com/2PPdr3ni-jYdtAgJeo5G7FCaAeKbxMEsw0K_igrJMtzhfz9dCEsTFHkADRNorV_xLaSXY6tArp2DLdbjifwQ",
        "name": "Le Grand Wazoo",
        "latitude": 49.889243,
        "longitude": 2.307086
    },
    {
        "image": "http://lh4.ggpht.com/wvgWUPt_r6nVoEyWGUERasYrLf2Lz4eHLw3_2B7RqLGJ1HPqL6yL2GGEl9DvDftxy_xX08g3m0Lldw1Xw8X6",
        "name": "Hommage Aux Sapeurs Pompiers",
        "latitude": 49.897766,
        "longitude": 2.29927
    },
    {
        "image": "http://lh3.ggpht.com/MbuSsDRaIRrH-mf6vAVo_f7ouAQv_BGmEwOlqjSvhIAzhXtRDiVUntF9vRV9REFDafpOoq09sh8_wS22M3w",
        "name": "Triple Chaton",
        "latitude": 49.910201,
        "longitude": 2.300299
    },
    {
        "image": "http://lh6.ggpht.com/NQ25eK-JKM1ZrjqVanbQtNz-U1zcepT-Ha04L4wupBhc8mYCHWA3k8lkgKWpLavPWfK1Zl1t3Lr3-8md8E4",
        "name": "Plaque, Amphi Fernel",
        "latitude": 49.890603,
        "longitude": 2.292902
    },
    {
        "image": "http://lh6.ggpht.com/2KQsqf6CmES-fiRAsbPDiNcc6AS8fR4H7HZkYz3oBomOTe6suwx_zD4DTmkoFdarA-OLK9BpPqNRfQGOYJI",
        "name": "Salamandre Jeanne D'arc",
        "latitude": 49.883831,
        "longitude": 2.294388
    },
    {
        "image": "http://lh3.ggpht.com/eTiNmfPyl2ivYpnggl5JIIJZoshW07a4RY1audE7LcK8v4jBAYC0uAzsBWPTJ2PxBW2iDsDtWGTE5LqCunnsVw",
        "name": "Monument Des Mutil\u00e9s Du Travail",
        "latitude": 49.888281,
        "longitude": 2.302344
    },
    {
        "image": "http://lh4.ggpht.com/9h7JQY9Nk90JR_3bxlBGA2h3K53OBTXzenZD3cP8T_LUU3NVORjQLmvVr0JwxXH2s3JO76CvEeuFRVzAwLCwbw",
        "name": "La Poste, Amiens",
        "latitude": 49.894712,
        "longitude": 2.296181
    },
    {
        "image": "http://lh6.ggpht.com/mCzNeIiWgnU6EgQFliGMBPPaL7_jTWt9fN37SjjAbgqHl6z1SI-VYg72kHygG5ldAygNsv2sNhkMJlvBo7nMcg",
        "name": "Blason Feuillu",
        "latitude": 49.886319,
        "longitude": 2.299706
    },
    {
        "image": "http://lh3.googleusercontent.com/ZjJCxNn7CxA9Rcgsam6e05EyVoCrqpw0usQsGV-sFLKK3-Nw-dOfjX8-UvxI2fUeBFrkdRVKa3qajT7Ru7Lq",
        "name": "Amiens : la cath\u00e9drale vue du",
        "latitude": 49.896224,
        "longitude": 2.304683
    },
    {
        "image": "http://lh4.ggpht.com/t-Qn3En4MBkFqf0GORUruh5FShRZ1OFN8b0hmfQasKcpYv1eQb_NJhLdZFgcXEIiZVcA7CRWfwQ1V2PfDVzF",
        "name": "Statue Facult\u00e9 De Pharmacie",
        "latitude": 49.890364,
        "longitude": 2.292759
    },
    {
        "image": "http://lh3.ggpht.com/bC311bhngSizGO7fxXwlAtXxsPsHIFKB9sWz-tsmBFqgOGa0nFL7tnkgyFPNDDnVhiFJiuVuH8ncRJqVHqDZFA",
        "name": "St\u00e8le Yolanda Guti\u00e9rrez, Amiens",
        "latitude": 49.900285,
        "longitude": 2.307973
    },
    {
        "image": "http://lh5.ggpht.com/Cn13V269sXFNAwhCHwz2xz-JOSRhDdyMyUHz-dsae6b860Iyv0Bqur64FMKuIzlQF33TGX0AXeONWHFljAc",
        "name": "Ancienne Borne Kilom\u00e9trique",
        "latitude": 49.892234,
        "longitude": 2.328605
    },
    {
        "image": "http://lh4.ggpht.com/MgEAYKo3WLOFOdbGbHugmYK8OaRM7kaZqFCTjSeIqGE4stXEVrFk-eMvcSs0sSlgq4YET_1v7QcaDdaOTxFe",
        "name": "Fontaine Du Jardin Des Plantes, Amiens",
        "latitude": 49.900551,
        "longitude": 2.29647
    },
    {
        "image": "http://lh3.ggpht.com/VUsTzln6Jo4GYx_4lPA9xYEoCQbzpXTKOX0FIkO79XkedlyubJrFEqLorWoXRxjr70MfdquBObfzyscxduEe",
        "name": "P\u00f4le Scientifique Saint Leu, Amiens",
        "latitude": 49.898548,
        "longitude": 2.29651
    },
    {
        "image": "http://lh3.ggpht.com/oIuziD3czi7FE8RD9_Z-vuAzuGtW-yzEuVClXC0L_xnyu5LRfhjUWy7JUeWm-5ZQ9A_oVeQzsJf22O4C7EKQWw",
        "name": "Amiens, le chevet de la cath\u00e9d",
        "latitude": 49.8946,
        "longitude": 2.30332
    },
    {
        "image": "http://lh4.ggpht.com/c_qLrB_ZuJpTS4cQSK7GbSa12bLFPsA--tHeHHFFonVuOkA7GYowuIotbx1mVj3absaHIslweL2c3UMdBuwxHQ",
        "name": "Amiens, Somme, statue d\u00e9guis\u00e9e",
        "latitude": 49.896282,
        "longitude": 2.303982
    },
    {
        "image": "http://lh3.googleusercontent.com/IW_czzH7RBU-pngBSIKkwEnCT_2hVN58pum-1E9Sg5f4vvbqnZAHqngmol_eLHBFfarNXT_eXZyZ13V1zsOS",
        "name": "Parcours De Sant\u00e9",
        "latitude": 49.883908,
        "longitude": 2.352884
    },
    {
        "image": "http://lh5.ggpht.com/rG4Es6HNalk6alNw29E0cV641_ukv7QM7a1B4hZZKwK_Yqhd3BlhKq53oN7jb3CwwVS69I_mJ-dTxOG8cate",
        "name": "Eglise Reform\u00e9e De La Somme, Amiens",
        "latitude": 49.895398,
        "longitude": 2.291084
    },
    {
        "image": "http://lh3.googleusercontent.com/aIh9-qEybZCtsFBOVp3PDAA_FguM6Opasl6oTL0tVHKZk-R5PjKKt1Zl9nVZMXhlvbuEqRjBK7EH-sLJ1I4",
        "name": "Porche Du Lion",
        "latitude": 49.889302,
        "longitude": 2.29455
    },
    {
        "image": "http://lh4.ggpht.com/CP6lrut0_4rzAj_kBtRnRS4DFw8vWTx3mmUV4zoavrSZ1Ld-zlpSoywpS0foU90JcYmea-5cDKhi299Kg_b7",
        "name": "Club House De L'Amiens University Club",
        "latitude": 49.870972,
        "longitude": 2.31112
    },
    {
        "image": "http://lh4.ggpht.com/WQ6oSPYKLBJnIDV6NKnpLu92oFjfe4KdSWO0a3XH27WjdwazkOfTIVDpi8qNZwLcNCmxuoHsCF44tqXdyjQkeKlIsavIhlqz8O6tTtC4ZvaEtsfZCA",
        "name": "Eglise Sainte Anne",
        "latitude": 49.887438,
        "longitude": 2.30731
    },
    {
        "image": "http://lh5.ggpht.com/kmePn0HquMnAhw5TRhKUegASG3XYmyIAuFWuUw-HC9IyTU4cRaKa8VVCzRuFLCY-ZHfYXcoPGuQ4t0Q67bs",
        "name": "Sueur Manorhouse Fa\u00e7ade",
        "latitude": 49.912319,
        "longitude": 2.282399
    },
    {
        "image": "http://lh4.ggpht.com/uOBrlMvuisvXc0k7z__lgdYBsM3jPJz_H8QCsuLW54Tx2eI6mi75GQ9ttHBnlel6ZmTOEULYdHbCZanOy0M",
        "name": "Charles Dallery",
        "latitude": 49.888073,
        "longitude": 2.302008
    },
    {
        "image": "http://lh5.ggpht.com/eKRJj_6cgEiF8q9Kr8QkInoO55mihmNt7mYRUnSSQ5EWu6RHUq1C8vKSWodsGNsXzs477fRB8FXNBLXFD-uCEQ",
        "name": "Les Sapeurs",
        "latitude": 49.895798,
        "longitude": 2.29035
    },
    {
        "image": "http://lh3.googleusercontent.com/6mjzuuXiDBZvEQ9T6ZeUx6ne2tGHiqjYNpOxQxM1X_N5dGF9Gx7RCCRxnXNYgUV_rK9aRrPLKEyE_Aw1AT8I",
        "name": "Amiens, place de la cath\u00e9drale",
        "latitude": 49.894807,
        "longitude": 2.30082
    },
    {
        "image": "http://lh3.ggpht.com/8GO9mcBF1WVQRMe002VjNLdfVpQDT_mStv2gfAXzaVoi6e900lqTbSUb_nM5zJtJYRJX6gutq5qgMIh-AoLb",
        "name": "Hotel De Berny, Mus\u00e9e D'art Local",
        "latitude": 49.892939,
        "longitude": 2.302454
    },
    {
        "image": "http://lh4.ggpht.com/41oUhXi2XAMZCoenihdFv21kPbkfXLWu7GDOrzlOO_6lBV87LwArEMx2M7rM_ZSH9I54CgyBX5FdR_Ym3fDenw",
        "name": "La Cloche",
        "latitude": 49.86998,
        "longitude": 2.352674
    },
    {
        "image": "http://lh5.ggpht.com/2vcCWC0qjcVoLcbgwyLz_t_tLIbUwyuRanDorr2qRrAh1WZBwsElLNBBwTHP2NTulSfbbWOg8kRbZqXYzR8xgg",
        "name": "Facult\u00e9 des Arts, Amiens",
        "latitude": 49.902078,
        "longitude": 2.294082
    },
    {
        "image": "http://lh3.ggpht.com/DR2ttFWanCjU5exBwKRjNFqAkoveUR5um_9BBPm0srNKYnr2rAW0XhSJS1Uug6k-RFPN4tQDoNpNLoK9fe4",
        "name": "Les Petites Soeurs Des Pauvres",
        "latitude": 49.886616,
        "longitude": 2.312918
    },
    {
        "image": "http://lh5.ggpht.com/pzudEKxXx7r588Qoz8_VgTfFo__OYmjnTxphBWPgaJ_Za8GCboDC-AJC5RYAnEEfUyDr4HPE-U7AWRfRtM1n8A",
        "name": "Statue de l'Ours",
        "latitude": 49.897569,
        "longitude": 2.294675
    },
    {
        "image": "http://lh6.ggpht.com/LdOkt-DAhV-69ZNG4PrwCNaD6bePPfnnSQPr9W94JITexYYa6q9DNj5yAqdBDgR3tjpQQasVwgturPBkCcK4",
        "name": "A Coeur Ouvert - Leon Lamotte 1958 - Amiens",
        "latitude": 49.890427,
        "longitude": 2.293619
    },
    {
        "image": "http://lh5.ggpht.com/z35SeexX1ZhtgBBnxhdbg5IDnehGwmIZP1dYFAnS_fZG_wzlqyl3n-3W8OLaJETbF4n0Hk5vQ1naVpvdRBM9",
        "name": "Notre Dame De La Route",
        "latitude": 49.874142,
        "longitude": 2.306365
    },
    {
        "image": "http://lh6.ggpht.com/kmKYJDvGM4h1XKWQQa7rB_f_fEybBzdNxLoFUdE5XlgT8uu3DjFSlIBKfiDDh6yAfjJtf3KyIVcflkANyd8Arw",
        "name": "La Poste De Camon",
        "latitude": 49.887679,
        "longitude": 2.343282
    },
    {
        "image": "http://lh6.ggpht.com/O-9t20YCcjUHp3Voq-gRVh89PylESFlgTr9i_arVwCkDq7s8iKRY8uNSRNo7NMXONPc5ZE6y1qvT8Kjl8sx05A",
        "name": "Piscine Georges Vallerey",
        "latitude": 49.871618,
        "longitude": 2.298984
    },
    {
        "image": "http://lh5.ggpht.com/fhi-Avso1gKD3aiD4AHR0nlxgI5-3Z8C-t7oOyodq3KWStqDvzca9n4EFLp6d9DIdqgq_JCrbrgOO1rTT79R",
        "name": "La Conscience",
        "latitude": 49.888436,
        "longitude": 2.304784
    },
    {
        "image": "http://lh6.ggpht.com/a6x6SC3WcO5Z3JTVA-M0f0fVvEj_P6gQhRn6fx0EPZvy_Zf05N4BuuNCRDW6DcCCrpsN2E29vmGlJgipJDk",
        "name": "L'\u00e9cole de Natation",
        "latitude": 49.894629,
        "longitude": 2.313268
    },
    {
        "image": "http://lh6.ggpht.com/P2xMFreNnpcYE7b2YATlNpmJ8EkXphiP4ULeCdqZ4rnjXHxJHcrLB8oqGUB79OTxEBuxsdI_7c6oNul0Hq0",
        "name": "Fille Dans Le Mur",
        "latitude": 49.886523,
        "longitude": 2.296347
    },
    {
        "image": "http://lh5.ggpht.com/1OYXL0DLQMGGLCuisybGTQwPaEL0TXwxUJ3RhVKEAHvn2daLZQxeq2FMf3BJ1F14eobQOK1paaqytmyx5BfJbg",
        "name": "Les Colonnes",
        "latitude": 49.892129,
        "longitude": 2.29814
    },
    {
        "image": "http://lh6.ggpht.com/UcfoyfOPbo70LJaSHtW6bBV3lyKie2YMxwmWAS5QlfgeAL-sBlZhwCoGEs86h2dBGGM-gzuWiyfY3W1tWucQ",
        "name": "Skatepark",
        "latitude": 49.897873,
        "longitude": 2.307957
    },
    {
        "image": "http://lh6.ggpht.com/e3n4GymfNqT8EI9a0IRYd05FSTr8KSnW-JreJMksziUgd6ypcXtsqELo9gbzthKbUyRvHKB_TJSCL5wn8BOq",
        "name": "Saint Louis Statue",
        "latitude": 49.887108,
        "longitude": 2.296694
    },
    {
        "image": "http://lh4.ggpht.com/RbCKakW_g7baNvW0bdBQDG3J4oKB-RfDBscmiqVVKS5d9MARGb8EHPemGtwM-BRua5VNTEEHYvDT9_geXRcbfw",
        "name": "Maison des Associations",
        "latitude": 49.892348,
        "longitude": 2.290464
    },
    {
        "image": "http://lh6.ggpht.com/bDpEJkIV6fohzw-TwRYkFCeXNgALzPcSHrH8pi8z5EHBU36zaiO09ZLlyrJCS21LVDb7556xmoTmVGM1587u",
        "name": "Les Deux Grasses",
        "latitude": 49.893778,
        "longitude": 2.292627
    },
    {
        "image": "http://lh4.ggpht.com/-RUodcuwWYuFbFT63FfL29OWb6B5j71VG1ojkcrT4qDINuG3vsYaHWM0xxQUL4NXC-ap6B3KmKiYB1YSRbMU",
        "name": "Plaque Du Parc Public",
        "latitude": 49.883544,
        "longitude": 2.306874
    },
    {
        "image": "http://lh3.ggpht.com/KgZtGZ5cZ-_lIad_xD_uT_SZzVGGt6jmUTADyvcuSkcDvCs7t2EAYXh66kn6cc7hKyVUabRfGRxAIGOY5BCz",
        "name": "Le Gardien",
        "latitude": 49.883084,
        "longitude": 2.305697
    },
    {
        "image": "http://lh5.ggpht.com/48R55LP9hxQwc5zXUJPGIWZnJGaAAFwZrCEnCKWa8Lvtl6PlJRyRJqh-BgZLf6xLwMxnblS1qBZCUGTMFZQ-ag",
        "name": "Monument Aux Morts De Longueau",
        "latitude": 49.873318,
        "longitude": 2.351174
    },
    {
        "image": "http://lh4.ggpht.com/Ed3a-NGWrveb75caPp0psSxrPNfGI_vQTeCqy-TmyN779iAJQRs9pFUP2NcYa-futkriaXHEc1NXEQMXFZVR",
        "name": "Ch\u00e2teau D'eau De Dury",
        "latitude": 49.859445,
        "longitude": 2.275066
    },
    {
        "image": "http://lh4.ggpht.com/8-6723Be8uE5FTP3IMQNTranfuKE06nLdfwYwmC34jfS66BItGrhShBqdaydpvZYwtCradrgbENN3P2XLm-8",
        "name": "Ch\u00e9s Intailles",
        "latitude": 49.891199,
        "longitude": 2.333536
    },
    {
        "image": "http://lh4.ggpht.com/xC4Aqf-ghChJPECY9k7iEllrTwOJNC9WwwivwpWYQpzfS5vUPjqOuQ8vynw8xlcCAO-jR98pkb3Dou5FPUS4",
        "name": "Les Sangliers",
        "latitude": 49.900016,
        "longitude": 2.27745
    },
    {
        "image": "http://lh4.ggpht.com/u5x13UiEFYqpymJFduydMJU2wO2DTH3RCSiU46ZP8-mjXw0jhdX4Fgi6ACVPdgP_SUDV2T3vMtg4rjEw8WZ-",
        "name": "Hommage Aux Morts De La Commune De Camon",
        "latitude": 49.887402,
        "longitude": 2.345266
    },
    {
        "image": "http://lh6.ggpht.com/755RwOdkAFHt3IcUMqeVQpxh5sQVxr4NgngyE-o_iVUQV2Oxi17PPponeB47TCnp8T2VqpEE8tc6ofO0V60",
        "name": "Maison des roses",
        "latitude": 49.892033,
        "longitude": 2.300578
    },
    {
        "image": "http://lh3.googleusercontent.com/gy0tbMszcS_ZkbRdiverbmTLkSpIFbMyoe7zeiyjFkoo1GqEqYR8mh-xlqFzNR3O_0uqF1K-s2K7p-Cq0R8",
        "name": "Sculpture Moyen Age",
        "latitude": 49.884269,
        "longitude": 2.299275
    },
    {
        "image": "http://lh3.googleusercontent.com/VelIBH8A_K5cYCwpR5qwxG4bKYC-QNykUo1A6TQIjyFXU9TqSu0NsjQYe2X0MzbaM0lGgqPoSZ9i1gluS_oO",
        "name": "Plaques comm\u00e9moratives",
        "latitude": 49.902429,
        "longitude": 2.299018
    },
    {
        "image": "http://lh5.ggpht.com/fcIxItlk4YGFR6i-mQP3KOnZ9k2skcQMqnuCzDp4SQFitclB-gSIk9HHoUhEGyZLC73LxQNFyCSul7eGhXGJ",
        "name": "Immeuble \u00c0 Petite Barres",
        "latitude": 49.894221,
        "longitude": 2.309412
    },
    {
        "image": "http://lh5.ggpht.com/yULxypZBNAhnesUJrrufgSy8Xy2p4qU4mBT-fINF6XEgg-If8XwdaT9zLE5n2jXTe7dd5Q2b4G61KXogFuyt",
        "name": "Bird Statue",
        "latitude": 49.895547,
        "longitude": 2.289282
    },
    {
        "image": "http://lh3.googleusercontent.com/MLu9gtfPBrcROcW9pUx1fY2WAZxDQDCTq6pmwXTDAwkTtvHPZEH1U6ycRPQfwbql1orQwLwZkSdXlt4-W2iV",
        "name": "Parmi nous, Les Infirmi\u00e8res",
        "latitude": 49.895345,
        "longitude": 2.301018
    },
    {
        "image": "http://lh4.ggpht.com/XxA4sI4WVACn1Pf5ol-I9sIQ7_QnYROkbZNPE-6SzMMvbjohBWPwxlGFYi9PJWTCbZEm2AaaKhZUL_yBUc0vVg",
        "name": "Ancient Ornate Gate",
        "latitude": 49.893017,
        "longitude": 2.3039
    },
    {
        "image": "http://lh6.ggpht.com/kyHcFnqvONPwA3KXVBJ3Y-xiQEzIpazpip_I33MTagHNDXcX0azTqMcesfe5PfngvKPnZr6F0sOcJt3KGBA",
        "name": "Eglise Du Petit Saint Jean",
        "latitude": 49.887784,
        "longitude": 2.264135
    },
    {
        "image": "http://lh3.googleusercontent.com/cEVvhzT8OfLwLeuF-2RXmskdR2c66rLnCDMNMjkBYR7LCGwYE7fNAmIsuYlHVRGoifM8m0d_tKnG0hDrp9i8",
        "name": "Le poilu",
        "latitude": 49.886475,
        "longitude": 2.308841
    },
    {
        "image": "http://lh3.googleusercontent.com/3aUwqeSJz4BBMjKXIuP3RHhGJL_5ZN8lg3S-iiEhrBAyjlshR9xLT2gpN6Xr02evHXl0CwDS_bznUHDdazS1",
        "name": "Chapelle",
        "latitude": 49.888272,
        "longitude": 2.31251
    },
    {
        "image": "http://lh3.ggpht.com/ksqZJYE19CH-6tVSTV4fcW7n_PguiB4je1CguGE3f6tlDC4g49e9tXn6BsaBDMZODvYrPVIXqxvOVoZXdfo",
        "name": "Peinture Murale",
        "latitude": 49.892486,
        "longitude": 2.308506
    },
    {
        "image": "http://lh3.ggpht.com/z1UlAaTnYCmLr_-Ig7siRlRruFenlOhYGVfF9xpoqZOaNjutSyz92aWL4AizpcimBiVxBQ_dq-4g22_hjveedA",
        "name": "Mairie de Cagny",
        "latitude": 49.862002,
        "longitude": 2.343556
    },
    {
        "image": "http://lh6.ggpht.com/IzkerYQ840JCTxh9TQGhKZV8BU60SnhUgkJSEA5OZ_Y9tz5SqYiZ4fA1sc3yPGAbSra4Tuo6p1OWkOGXnl40",
        "name": "Ange Sur Un Mur",
        "latitude": 49.886584,
        "longitude": 2.300917
    },
    {
        "image": "http://lh5.ggpht.com/Q15EMU3u203lt6Ob7D7sds1QG4Icz8-OUllhhUDaOnM2efGzRYpM6XeFCfzmeMEUh8on2g2DjARo2P914nNP",
        "name": "Cath\u00e9drale Et Hortillonnages",
        "latitude": 49.895197,
        "longitude": 2.310261
    },
    {
        "image": "http://lh3.ggpht.com/-mltlgF672ppUGj7x3_ce1A783bihLE589jgdtNVyR3ck4QN_5BSyfZ6udchT5Zn0irND9lXCF40OW7BhQJ8",
        "name": "Art and Design in Amiens",
        "latitude": 49.90224,
        "longitude": 2.293641
    },
    {
        "image": "http://lh4.ggpht.com/7hZGA0Vrl3X2DFudKt--k2-tRCIXRb4FWmpFPYFEGlNYMPVnSaObQUGJM6o7jvlb7l2DT8vS6zFkzx0j2lMB",
        "name": "Birds and Fronds",
        "latitude": 49.886072,
        "longitude": 2.295928
    },
    {
        "image": "http://lh6.ggpht.com/AV4rNtpTYDkvZaQRe32FkyvT16pkEE7SiqybfNVkBmgGWm9wsP114SI0_XnAK1zFUtuLCML8RqZXFDzLfWs",
        "name": "Marie sans Chemise",
        "latitude": 49.894043,
        "longitude": 2.298661
    },
    {
        "image": "http://lh4.ggpht.com/qoGLeq4NOz6Q0E8JUI39-zj_j4dqX_FWNQCiqp-4dSSfoy3DNgNz2nNCgS4ioBUxOlD3r4_jRcNtMJTw13-h",
        "name": "Z\u00e9nith D Amiens",
        "latitude": 49.89571,
        "longitude": 2.26863
    },
    {
        "image": "http://lh6.ggpht.com/mc71cE6XrjgTmzx-gm30xJHMOg6YqGSTIf0ZDlL9sOpYIuMcsCYKDtpBMzFYbqh_EuqGb6XQHf7IUH3cYqxi",
        "name": "Hq of the Somme R\u00e9sistance durIng WWII",
        "latitude": 49.8915,
        "longitude": 2.299887
    },
    {
        "image": "http://lh5.ggpht.com/byOz1LUQFq04RVS2S9y4LEp6QNcyDQs-mP6LCvVsRA_FabjL4bKbR__O1Uy9ReptGh1Nr5s6-n8GRYngwgZz",
        "name": "Immacul\u00e9e Conception",
        "latitude": 49.88582,
        "longitude": 2.305446
    },
    {
        "image": "http://lh3.ggpht.com/wXqxoownI8Vd0ar2caPTwRZIvLImhuFax30gHYiVNS9SiRm49gskrrlWxWMqsyJzsrl0K14ClYfl7uJdrNA1LA",
        "name": "\u00c9glise De Longueau",
        "latitude": 49.869729,
        "longitude": 2.352795
    },
    {
        "image": "http://lh5.ggpht.com/RrhqEgPWxLi8uGOzr5GWHg567M6kg_ZzbP0x7wxezQrLiT-BUEuoRln6YC5qx7TSwHwvcNqCms-fd5P8ZPYDmQ",
        "name": "\u00e9glise Saint Riquier",
        "latitude": 49.883253,
        "longitude": 2.324759
    },
    {
        "image": "http://lh5.ggpht.com/9PT-nqmFLEyvqDpLIjqtsSNkEAr01VgNqhjb75tWZXNbD1fER8yBUFgo30yUh-YUf_3trdZxpzsZ-6qbPLc",
        "name": "Silly Girl",
        "latitude": 49.895827,
        "longitude": 2.302859
    },
    {
        "image": "http://lh4.ggpht.com/OsJvRQc2H-qQF2o3TF0l8OhnJoKp6u4PwbQp8EjfuUnLBp7ZsSST7wz7V1UrwsJ3wh0y6JmLM0d9RxyfQjicJg",
        "name": "Former Vinegar Factory, Amiens",
        "latitude": 49.90052,
        "longitude": 2.300921
    },
    {
        "image": "http://lh3.googleusercontent.com/0948IU5eaBcwvEymzMUMgZcDEtgpdiVVdKtU_TJt8wu062oXnFAXPdmGNAuyB6JAxSUq6lEvG_05Yt-nzGGv",
        "name": "Fresque Grecque",
        "latitude": 49.884051,
        "longitude": 2.326586
    },
    {
        "image": "http://lh3.googleusercontent.com/0UMOir5rHa3aQhNKk38IrXVoQ5Ato9pCr9lNviescnIzeY3JeNHTRxiFILx_uqSiH80gieFqUZscy9rWQcQg",
        "name": "Cath\u00e9drale Notre-Dame d'Amiens",
        "latitude": 49.894307,
        "longitude": 2.302907
    },
    {
        "image": "http://lh3.ggpht.com/XFAKbgMIU3WfhowA8NRhwQ7E9xanNZsTO4SatYFSF1mRtyh1N7dKNh2O77O2waLHdQj6NPpLkWB7AhZ1-LKm",
        "name": "La Poste Andr\u00e9 Ch\u00e9nier",
        "latitude": 49.877452,
        "longitude": 2.287644
    },
    {
        "image": "http://lh6.ggpht.com/18g7tuyI2sJTzhO9e4r2OG8YqqJb3W1PwtPbhvJx9jra4jfYi-_sUNt4WgOI1aC5PgUCTHtzNfsbpriMUPKC",
        "name": "La Poste Fa\u00e7ade Moderne",
        "latitude": 49.894523,
        "longitude": 2.297331
    },
    {
        "image": "http://lh4.ggpht.com/t6CLkdCTCT0RUUAnCeADVWbhzZPDN1TSn4qYrPWCVWFQn1q8Zf3whQxXDZvRXG-xGvP8BxJSnuLhbtWJbvqjeQ",
        "name": "La Citadelle",
        "latitude": 49.903205,
        "longitude": 2.298693
    },
    {
        "image": "http://lh3.ggpht.com/OuO9P-pieTpuEcZ2ew0-wKsdH8380dqPG0s8TLixMaNlaVbQJufpBUFlMeFE0ylgiWHuOYqPY3ZB4tOCbEZL",
        "name": "Sculpture sur une maison",
        "latitude": 49.892515,
        "longitude": 2.30813
    },
    {
        "image": "http://lh6.ggpht.com/D7NE8xLW-qXGSfKKwRkdZxzkTZu2u2DMUxIOOdaKtnxoPD767UcBor82luW9NF4gqUEoFOnVuyqJu04C418",
        "name": "Facade Art Deco",
        "latitude": 49.892133,
        "longitude": 2.289916
    },
    {
        "image": "http://lh5.ggpht.com/lh-mrCX8HQKa94yCWqJJn-Iuu1H1T_vJGLKTQSx2iLDvsqX-d-KSqrQna4UxDR-TOLKhVLokj8D_8u8GitUcow",
        "name": "Plate-Forme De Tri - La Poste",
        "latitude": 49.890435,
        "longitude": 2.321479
    },
    {
        "image": "http://lh5.ggpht.com/6hsw9W6k_h4GzHhCY5b3iVVBjDGIGdJh9c6OrR_bqlvOKM3eOsmnPIdiBcfUkuhM_8X5PF30iix_DVg6hiBD",
        "name": "Le Vert Galant",
        "latitude": 49.894409,
        "longitude": 2.315189
    },
    {
        "image": "http://lh3.ggpht.com/gGQ1d8Yd46ncOymc2cfdzRhYkE8PlIoTIiy9Q8UhX7qdeJ1RZn0jcX9a0oyudU-1PvG-QRhMUMCi1yl5kBiK",
        "name": "La Ronde des Anges",
        "latitude": 49.887491,
        "longitude": 2.323058
    },
    {
        "image": "http://lh4.ggpht.com/YFwzs1gAsAmRTH78DZ-R8tmX7Zvr1myeiltpAJQMlgExyrSgBrC60OmEK0zpz_VaV1XG1KaagPEgaROCstI",
        "name": "\u00c9glise Du Sacr\u00e9 Coeur",
        "latitude": 49.893633,
        "longitude": 2.304961
    },
    {
        "image": "http://lh6.ggpht.com/bzJtxNeuNMd4Y4o9hoBWPFlMvr099cp80B6TIsuF8rDHYCXEWzHvIuyKoWfVvZfmXS0IyflKcV_FLOcUcBq3",
        "name": "Sculpture, Amiens",
        "latitude": 49.897975,
        "longitude": 2.289116
    },
    {
        "image": "http://lh4.ggpht.com/OSOdlrQIjibHteoF9ABMdXbMCYRzo9LZrg1bE_eEl_7EGnEjxDvb2Phw3xUCwUkv83YiZG7T0IKK3UzDUAz9RQ",
        "name": "Crucifix",
        "latitude": 49.864836,
        "longitude": 2.337877
    },
    {
        "image": "http://lh4.ggpht.com/MIrGgn7z2mvXe4HavBojRQPIhpEdVPy16fHM2EEA_T-5LkykSBhs_ode5juwjQtomKk7vM2440y287abGNCd",
        "name": "Biscuiterie Vieville",
        "latitude": 49.886573,
        "longitude": 2.293361
    },
    {
        "image": "http://lh3.ggpht.com/QFuQYR1VgEUFOkjFsuHQOE0ltOETs8MTDWOn94c0eimmRQxUB-Qq1FfriMXOw87If6muw5PfDVNFkQqCDXfd",
        "name": "Comedia Del Arte",
        "latitude": 49.896626,
        "longitude": 2.292186
    },
    {
        "image": "http://lh3.googleusercontent.com/L6dONFB4cEFTyy9TYHW13EIipdA5HRhHDDSapHP8AOyjA7TDtY-yVc7hqxlB8JJ7mprkOJGcoKGMXYPEs1Ja",
        "name": "Aux Portes Des Hortillonnages",
        "latitude": 49.884595,
        "longitude": 2.35107
    },
    {
        "image": "http://lh4.ggpht.com/_b1lTI58ia7zEvUOkCdX7ca812xIdJ8PtgvGIC5P1Im4TEKPBqOKRXdRz5iqw0T0-zJH-coJlfte7BAGCA-Zmg",
        "name": "Car Wash Mural",
        "latitude": 49.907994,
        "longitude": 2.304004
    },
    {
        "image": "http://lh5.ggpht.com/Cx9OayMlGttQ8luSQDH9FOawu8fqatGXdLlqg0F7ryXInu9nOTljA9LvX7dO0pgueQ_VWdWQFfN5fq9jW3Ow",
        "name": "La Porte Du Roi",
        "latitude": 49.887087,
        "longitude": 2.303534
    },
    {
        "image": "http://lh3.googleusercontent.com/zfJM941N40jAl8-rpJN6VlYKM1xLBaWn9HcuBRLyNG4kVx6jIz-ecmhCRFTSbNTm05bSbnzH2qmqgapW_iw",
        "name": "\u00c0 la m\u00e9moire des d\u00e9port\u00e9s juifs fran\u00e7ais",
        "latitude": 49.89346,
        "longitude": 2.300319
    },
    {
        "image": "http://lh3.ggpht.com/xPrr8hjtp735bbFNKIjEtseG4xeOIKrM-4-0FpD19JMla6iPJS9_BOJq1LqrZhk-dQIYz6b-rItPDWdz8KBN",
        "name": "House of the Pine Cones",
        "latitude": 49.882166,
        "longitude": 2.306575
    },
    {
        "image": "http://lh6.ggpht.com/YxfNpBmQZGvl88tDrsHNYMDC96bSSQP5JJLFwRQdUP_DdfuH3RRuCCntred9GrnHeCwvL776DRSD9CwgWDw",
        "name": "cabine de t\u00e9l\u00e9phone anglaise",
        "latitude": 49.884042,
        "longitude": 2.323562
    },
    {
        "image": "http://lh6.ggpht.com/o9LQpGjEU1DgKWwb9I-yWeGs72sDRKrKvh91VsIOYPFV7XY8EpxTFMwxEnNvMX4Pn3-ox57Nkiox6je3-F1yQA",
        "name": "Statue Square Annie Fratellini, Amiens",
        "latitude": 49.888145,
        "longitude": 2.296428
    },
    {
        "image": "http://lh6.ggpht.com/TczXhXhZhtSjCTBV23dmgSrqHfoX_hwPIn_Wf-v3NRbf3Vnq7SB8BU7iB2Dzx6m-YfrpunomudVQ1fSIMOw1hg",
        "name": "Maison Du Baillage",
        "latitude": 49.894701,
        "longitude": 2.295023
    },
    {
        "image": "http://lh4.ggpht.com/P-MMPv34A9Mfd79CGEJ_gVoR75qA9UNLMWMtc0APcpKs9MPyLwuTXS_iCgfdajCDlM5cdfiXWFn1vTtrSzZr",
        "name": "L'Ours Noir",
        "latitude": 49.898095,
        "longitude": 2.283642
    },
    {
        "image": "http://lh3.ggpht.com/50u60PiBOXnLnh9gV6ew92Vi53OOLfE4JriU9jMGGqRaFwdHwe6V4Z6G3Pw2LRytfR_m_wFdHzy7VTxrmsmW",
        "name": "Le Jardin des Plantes, Amiens",
        "latitude": 49.901578,
        "longitude": 2.296407
    },
    {
        "image": "http://lh3.ggpht.com/HL8MPi27nfZseBQKBRtrUlrALdISaQ8FN7nbFs5xrJoTcLkzwM8nWdaldcKnxNxLPiSu45lXMkx9HnyqbvM",
        "name": "Librairie Evrard",
        "latitude": 49.893833,
        "longitude": 2.29622
    },
    {
        "image": "http://lh3.googleusercontent.com/VxW49n6Kzgovmo2W4r0vIGUZBRiRN0mT8vtOxCrq38EONm79vnoPfb8wBbOrOHowB6KSuTUnb_2DrNtWvN7CHA",
        "name": "Maison du peintre",
        "latitude": 49.8935,
        "longitude": 2.299489
    },
    {
        "image": "http://lh4.ggpht.com/832xP3zbicWnqXmw3uQtT8HqNIx2Sdi4BlLt7D5udkVWClqmexEWDr8R8dKMPAp9qeNH7cIOn1hw94jfcX9zWQ",
        "name": "Armoiries De St Michel",
        "latitude": 49.886852,
        "longitude": 2.305398
    },
    {
        "image": "http://lh4.ggpht.com/Wjbc8kQ6mJQel5YIIY73aMVKycWdZmPDNjwPUIFSc6g5sgQEcLZhkEnLfiS5fh_Jms_sBrmBcElo0eAASysU",
        "name": "Les Nymphes",
        "latitude": 49.889447,
        "longitude": 2.297985
    },
    {
        "image": "http://lh3.ggpht.com/CN9PegI49ujIOuzq2qneiv9o-CmXtMK7aqoZfNsVB-FZKp16imCQqw8AYBIj1SkGFgRaZ7D529nQe8s7cSEk",
        "name": "Maison Rococo",
        "latitude": 49.889097,
        "longitude": 2.310918
    },
    {
        "image": "http://lh3.ggpht.com/N29s2rZwGMhuv8jwSiavbQydFUsVneCbqN-nsMxti-0_4X4BfpYQU_fY8CcYMUlBdt6tEiFawitRo_rfRgOD",
        "name": "Requin Sous le Pont",
        "latitude": 49.895334,
        "longitude": 2.310594
    },
    {
        "image": "http://lh5.ggpht.com/_rYfJxiwCB5Q9Bzo7zCXKnBm0xnPfTH5PNGiVDVuY-nL0FXSQaqyQ4zxZvpm1IpnpIYoU6-i_GIfs8VVtPE",
        "name": "T'chtio Zinc",
        "latitude": 49.890936,
        "longitude": 2.304738
    },
    {
        "image": "http://lh5.ggpht.com/1E2sOGazVhVS6TZtQ9ztsQgviTslIhNhpiQgIT_hUwF8ku_p91tJHv5pmK4xZ68UK3GSY90B0etL7170fFUN",
        "name": "Madeleine Pyramid",
        "latitude": 49.91507,
        "longitude": 2.28183
    },
    {
        "image": "http://lh3.googleusercontent.com/yxFSzQU1KgadeH8iWdmOgMRrVvjfN7Z09cgAgmIeCJ47MN0Q_ZQ9B82ZA-eTfVzpzORMGEHTnOEVBQBRTnaj",
        "name": "Portail Cr\u00e8che Jules Verne",
        "latitude": 49.885242,
        "longitude": 2.301531
    },
    {
        "image": "http://lh6.ggpht.com/cQ1rynu9Gy3EIBSesq97DZEEg2FAgoJb_qyqiZ_TNV1XzWKzaXAmCOb5PSi9zHQ-0KWX8Q0kd5zSUj3W7ErP",
        "name": "Place de l'H\u00f4tel de Ville",
        "latitude": 49.893421,
        "longitude": 2.295454
    },
    {
        "image": "http://lh3.ggpht.com/m_wHDWGf23MS3NblJzUTgDJNliUVKatLUIn3umkJN8lDChDww_OwLQACxIEHNUJ1boTb-9CcSkjUp8EP1WA",
        "name": "Chapeau Melon et Piles de Livres",
        "latitude": 49.89461,
        "longitude": 2.297888
    },
    {
        "image": "http://lh3.googleusercontent.com/jFRACoCEcSWs8XUmUuc1qja8Y2uZpnZ3Ozhm7gc7GpWYxnsjWMwTk2_Q5Bb6Z8ML695CFZtGFiZKLCNpTtJ8",
        "name": "Wooden Pylon",
        "latitude": 49.891161,
        "longitude": 2.337138
    },
    {
        "image": "http://lh5.ggpht.com/eCMj1s1_BJljrGxxOp0mjj2MsCGJoNLY6XW7h5zIxCG_OvbMrCIEkksqLYQiuwSzXM_pM_nGQpcjFysQO1zA",
        "name": "Square Beau Regard",
        "latitude": 49.880641,
        "longitude": 2.302952
    },
    {
        "image": "http://lh3.googleusercontent.com/POEp16OPaKpGFabViD-QK6SKxIbA20xIxhvZ2HkoI0TPbRPVMHMJ0oEC1OfNl_fotsBuHhB0uCJL1Z5_bifRDQ",
        "name": "Protectrice",
        "latitude": 49.890874,
        "longitude": 2.288678
    },
    {
        "image": "http://lh3.ggpht.com/SHm77dxKZmLyjQZEmw9y39Z4Hf2GRgQJ8TQGK_ps2-FSfSqUHLhMkGSK_KLRgKtxmIvZgyy948spx2Ms0-nX",
        "name": "\u00c9glise Du Conservatoire De Picardie",
        "latitude": 49.886017,
        "longitude": 2.31066
    },
    {
        "image": "http://lh3.googleusercontent.com/02X8_I-suttSa3DqpuiouMumIPZiAvXpa5ExWrp3AuG6OVb2NHDs7nFnB5ZaGDPLvNo8eCa6JT3yzUWR5PUo",
        "name": "Blazon Dheilly",
        "latitude": 49.888654,
        "longitude": 2.285067
    },
    {
        "image": "http://lh6.ggpht.com/-RMmOoxy7QrLN6HX-5cB-9phYvO2VkQX97Zz2kmE2CnKamBXsLnCONqROSCiA1ghjEUINd1pjsnGHPRuWyzI8Q",
        "name": "Palais De Justice, Amiens",
        "latitude": 49.89273,
        "longitude": 2.301278
    },
    {
        "image": "http://lh3.googleusercontent.com/R1P0U87lMEV4ypuChz7ZWubjJSd7_HtPzn9wLth5G8Bi8d53IMwHiyB7B7W5JrEThPa915qY6u1QjeKz2shD",
        "name": "Amiens Presbyt\u00e8re",
        "latitude": 49.895044,
        "longitude": 2.302899
    },
    {
        "image": "http://lh5.ggpht.com/jumzrFdUWBucMbgIK9DM1cihsv0FVC5t8eJoPL-S22Zw4rXuzK3QpZW0oEpEcIsKQUvZqVztRhj-JDQyNN7Q",
        "name": "Au Rendez-vous des P\u00eacheurs",
        "latitude": 49.887957,
        "longitude": 2.332907
    },
    {
        "image": "http://lh4.ggpht.com/R-KC8ECKMeq8ESWRrK6zdA0nwqzLbCN5I_vcbVEVfhiZtSF1vlDq-iptUszYT64oG8XVQEwi6XNIoRS0giu_",
        "name": "Plaque Commemorative",
        "latitude": 49.888061,
        "longitude": 2.313068
    },
    {
        "image": "http://lh6.ggpht.com/gkGc8PgA1wkJuU6dmrJSFjOxITs4tB7QNHzh6W5IHUvBmYGNWPP6YAF0yukVpjKRZPLrl5IeLy7QQ0RFGgKx",
        "name": "Centre Sportif Auguste Janvier",
        "latitude": 49.887424,
        "longitude": 2.313436
    },
    {
        "image": "http://lh3.ggpht.com/oLECax0NocS06PRcC-uZDi8TaF4vVZvJFGtIN4_XT9hoppapMffHyLH8EZLQ61YypbfOizfGH6hXRSi-jZOr",
        "name": "Haut Bas-relief",
        "latitude": 49.892072,
        "longitude": 2.298718
    },
    {
        "image": "http://lh3.ggpht.com/3Sz1Gw7LGxpkmhssWMkvl31_sCqiSOXEMBY4CFcQPi6LJ5MmRKyI0U8BL9Sv5X9UN-XLfhzDJvHGuQkdXVeH",
        "name": "Bison Couch\u00e9",
        "latitude": 49.867742,
        "longitude": 2.279621
    },
    {
        "image": "http://lh5.ggpht.com/h2ssWBw6eagX3jsn9aZlyR0eHJIR_tP0nJCSxFR_IkVJKD-4GlpZC4INtW0tcs49sfAa42r1wnJO6dPozrh6",
        "name": "Fille Triste Avec Un Ballon",
        "latitude": 49.888995,
        "longitude": 2.310512
    },
    {
        "image": "http://lh4.ggpht.com/dSoMWyP1Rwm9C28yo2Zo8hlbJM4sUZLJdYd8XJQMhcyCMpCCkSBhsT7aOG6emnXlE3Cl4jNgbxWKvE4iAwFZ",
        "name": "Dominois Rivillon",
        "latitude": 49.877618,
        "longitude": 2.315793
    },
    {
        "image": "http://lh3.googleusercontent.com/_XmIKp2ChuVLY7pGiftH5UHN3wecTdU8ZPIp3TXgL1utnWK5RgB-Fe9mtzQDieDmScxZHZRBSdQw2BHXZIA",
        "name": "Croix de la rue Sobo",
        "latitude": 49.879386,
        "longitude": 2.335155
    },
    {
        "image": "http://lh3.ggpht.com/79r0OJOdkYbjO7MOaUhdgiwquu4lxtchSMQAD-23QatHIK3Yca5_8DKMuITIv7uAVkOE1kLVQNAoCRxxyDk5",
        "name": "B\u00e2timent De La Soci\u00e9t\u00e9 D'horticulture",
        "latitude": 49.888293,
        "longitude": 2.29284
    },
    {
        "image": "http://lh3.googleusercontent.com/Z2e32a34ekCMlDu5SxNJ1Z-DNBnMRJnJM-MDje_18OcKaDuL-3IOpmJ3d7a-JEV5lvoBYcVKbT2a9L8IN6w",
        "name": "La Vierge dor\u00e9e De La Cath\u00e9drale d'Amiens",
        "latitude": 49.894276,
        "longitude": 2.301819
    },
    {
        "image": "http://lh4.ggpht.com/VR6q3INmJNTVGTTKK3ZHYURqrC3NoHnkl6rpJ_5eIKN8el5lTBs7nLWHm_uLApe1IPwxEkG5wH2B9EkKcK68HA",
        "name": "Plaque comm\u00e9morative d'Ernest Prarond",
        "latitude": 49.885436,
        "longitude": 2.313855
    },
    {
        "image": "http://lh6.ggpht.com/3lTe7Bo7se6SzNOeyZ1wM4D00AQ6_JNzuHBxK6SWtxvY1Zg-3sgXAWcoqVWXzsJKb4tNrx9tmCaqbMD2dviM",
        "name": "Les Guinguettes",
        "latitude": 49.887721,
        "longitude": 2.335723
    },
    {
        "image": "http://lh6.ggpht.com/-xxHB9wI8WOvIXobuDtlfV1r0Sy0IZX5qYBFTKTk4_nCZQD6se1UsExCNuHjctcyHkrhVYhadLqzbH79iyY",
        "name": "Forever Flying",
        "latitude": 49.894366,
        "longitude": 2.30429
    },
    {
        "image": "http://lh5.ggpht.com/UttB9F0Jc1eGDuapXMyQUPhAxd0374DgQRXZe7XAR1_rsQdqiQBX-lt_eZnvKLUDL7CT22WPh9_1SHWxS3xm",
        "name": "Pr\u00e9fecture Annexe",
        "latitude": 49.891392,
        "longitude": 2.29537
    },
    {
        "image": "http://lh3.ggpht.com/egsHQNpKcBcmnGgBs9ONaPHSOdHNMWh3i4WSGR_EA-ga-vHF9tt5nzAxX2284XBpi0Rs5N3TqdnugCIKTrlZ",
        "name": "T\u00eate De Porte",
        "latitude": 49.885575,
        "longitude": 2.2994
    },
    {
        "image": "http://lh4.ggpht.com/3kCq23d4bLNm0ZnZ_Mc77YumFlObnMqIUfq9Ofx1vzl64sA29CUWX-iALiqUHTATmcc1WLE4csndvSOrTlM",
        "name": "La Chasse aux Cygnes",
        "latitude": 49.890755,
        "longitude": 2.335169
    },
    {
        "image": "http://lh4.ggpht.com/0plFPsN65qxWzYKB3ZhW4lq4C__MiVsBrK16s9o4zRTbf2E7jah1_-P0FsM80kVczUiWhSd-mwzoCD5QSUg",
        "name": "\u00c9glise Saint Geoffroy",
        "latitude": 49.884011,
        "longitude": 2.304414
    },
    {
        "image": "http://lh6.ggpht.com/pzd9X8x9p6q5TWFao1R7nvSPvj3CDYYQKaLmM9996f66DJqaTvZq6wQu80TxXPhoqH_qEfHaTSAJqFr8nZo6",
        "name": "Jules Verne",
        "latitude": 49.888248,
        "longitude": 2.30373
    },
    {
        "image": "http://lh5.ggpht.com/CXUiDm-VCHePHTl74wt0aEULrTV6Wj7Q_GgR23n4bT40OrL2lOO6Oclj0uVQejLmBjyVMwkIWAtK4S6f0xHI",
        "name": "Immeuble Des Centurions Romains",
        "latitude": 49.893751,
        "longitude": 2.290819
    },
    {
        "image": "http://lh4.ggpht.com/v34xV9CFpAt3dbv4MjBoISkRK1-RDIIvb9LEbjq42Ze0uG8B3nn-ef684lKflYUw5SeTbNE9fbeIuIoXqmvEig",
        "name": "Saint Acheul Archeological Garden Entrance",
        "latitude": 49.8771,
        "longitude": 2.331226
    },
    {
        "image": "http://lh6.ggpht.com/XTeVNkMig9R0Q39wOs_wQrXQ2bqe5Da198wENEbDppRHwJddk5sYP79s52GpAdqJYPgeMggg_uQcmmAO4vgc",
        "name": "Leonidas On Door",
        "latitude": 49.891071,
        "longitude": 2.300415
    },
    {
        "image": "http://lh3.ggpht.com/_WVqIn_bss-BpuJE5uBq4A3iqKdfp0q_ocUPDAOTV0MqxRMuxge_-Jc7pHw3sZ0ambGHOKEHxh4AvrYNXbnv",
        "name": "La Passerelle",
        "latitude": 49.897493,
        "longitude": 2.309789
    },
    {
        "image": "http://lh3.googleusercontent.com/RXP9qdhjW96YXYHM0h0xYSet1W94wLncnlJ1OCXbmPjbfQekuF2PqX8Epf2mLOcJDEqbsB37wcFz5Qq0IT5Cfw",
        "name": "Mitraillage Allemand",
        "latitude": 49.868553,
        "longitude": 2.278873
    },
    {
        "image": "http://lh6.ggpht.com/rc2eU2jg_MVkO6xz81wLFX1w44MiQS0sjVmDUmiRA-6GL7SOEgMrLdpZ_XnbNDmpMKcmZN4Iid8V-JLPQNYWaw",
        "name": "Panda Mural",
        "latitude": 49.899089,
        "longitude": 2.303912
    },
    {
        "image": "http://lh3.ggpht.com/F9ZTywFNhYYFpEpfcfSoVYOdr6Q9Lgetfj2zhTd71kkfKgl9D-pGNX79-TBArkKQugk9oHVkxDThBRvMpWm0jA",
        "name": "Amiens - Blason de l'\u00e9v\u00eaque Pierre Sabatier",
        "latitude": 49.890923,
        "longitude": 2.292621
    },
    {
        "image": "http://lh3.ggpht.com/aAZfVyio6xHcSetUNsL_aL3Wm-EK2r2RhkWvwMFI-JQ3ZFzjnPkZn_Mi_2MPAGUHEkBoTJ59JzqN3ERgGEY",
        "name": "Facade Historique De La Cit\u00e9",
        "latitude": 49.876338,
        "longitude": 2.29498
    },
    {
        "image": "http://lh3.ggpht.com/b7AqfhMf_-eRxPoOE90MakeMP9WrM1rpHJ37bdxK1cuWIHAjmwT28_F_MQvksh210cJ7R6QFCMDMtvvZeNY",
        "name": "Maison des Mascarons",
        "latitude": 49.892487,
        "longitude": 2.299406
    },
    {
        "image": "http://lh5.ggpht.com/Xuri-mktf4av0hr62d1v3-VOeTk1OepxOONEWFV-7xUXAahO9_dmMmIe7QVyWDEf7Ft-EkGVv6q8ZX1EeK2z",
        "name": "Le Courrier picard",
        "latitude": 49.891509,
        "longitude": 2.29685
    },
    {
        "image": "http://lh4.ggpht.com/8kQvR1tsErKt0p0gBFsXe0q_vCBW1ykNpdloPa1JA8WVNbkORYtJLjY07rMik2HVvedV2sLCfna4xqW25rM",
        "name": "Ronds Mosa\u00efque",
        "latitude": 49.882399,
        "longitude": 2.285632
    }
]
