[
    {
        "image": "http:\/\/lh3.googleusercontent.com\/IQ2zP3w76DUPBbbUgZLMkJD4VHLdbdTfUzjbUM7tW0sshEEPySpPAZmfV-dtLUYr3etWasKN4eEFg77NPSWt",
        "state": "pokestop",
        "coords": {
            "longitude": 2.294174,
            "latitude": 49.882861
        },
        "name": "M\u00e9daillon Du 105"
    },
    {
        "image": "http:\/\/lh3.googleusercontent.com\/tne4Za7YoVMwJmO2ia_cYp4dophwNsU6HyAAaYbqJwpU1VyWutrs8-ThYHq-EEMICvYhnUTCNEmn5bfh1AU",
        "state": "unconfirmed",
        "coords": {
            "longitude": 2.300002,
            "latitude": 49.891324
        },
        "name": "La Poste Jacobin"
    },
    {
        "image": "http:\/\/lh3.ggpht.com\/9A4s3Ydgi2-Bdu2kmnk0MjsOx5jHH_K_td3IIWPbgzEDoMKk-tVF8yEZHrxYFmxbV0U7LBH81XzdJxd3FrY",
        "state": "pokestop",
        "coords": {
            "longitude": 2.295971,
            "latitude": 49.892174
        },
        "name": "Amiens - Square Pierre-Marie Saguez"
    },
    {
        "image": "http:\/\/lh3.ggpht.com\/t_aeWQbwdJEWwCJ0VS-BiteDhkIerT0R0hYnSbvMQd5Mbbg7x9DAgRfxcR0ZYOzciK9rDTR0tOhhOrOzj9pF",
        "state": "pokestop",
        "coords": {
            "longitude": 2.295549,
            "latitude": 49.887096
        },
        "name": "Les Lions"
    },
    {
        "image": "http:\/\/lh3.googleusercontent.com\/1Ugo3lJASwS4KCBXq79TWkQYXeokQdVEhLjNeiJFIe2oVp0asZ65wIjKNueVkUgKH3hw4Hjxtl4VnU-JrPc",
        "state": "pokestop",
        "coords": {
            "longitude": 2.312742,
            "latitude": 49.891906
        },
        "name": "Maison de la BD"
    },
    {
        "image": "http:\/\/lh5.ggpht.com\/-pC9A5fJneF9DJyNnh8jEZuSnWLQmqEhgWx_iN9dsVAzTa-tIIN2wyLaG17vqAXscyY34TKeCrDbRtL2HMOLdw",
        "state": "pokestop",
        "coords": {
            "longitude": 2.30445,
            "latitude": 49.896961
        },
        "name": "Soci\u00e9t\u00e9 des Amis des Arts"
    },
    {
        "image": "http:\/\/lh5.ggpht.com\/clYtQ3c9NL0nE5A4JTXHB1ypaglF6BYxXHdDhjEIgSl9SzmWvSmtLi9lMeS-WkaDypkDghsLLdu6NjjuqqkRXg",
        "state": "gym",
        "coords": {
            "longitude": 2.312558,
            "latitude": 49.892987
        },
        "name": "Eglise Du Sacr\u00e9-c%u0153ur"
    },
    {
        "image": "http:\/\/lh3.ggpht.com\/qoJieC1PiKyuxh19d2LSMhbhJpis-_p_H5Ukw1gZGxNVPDLXNTVNHB8YKbdALvcw8RywKoxT-651G3oYo_yO",
        "state": "pokestop",
        "coords": {
            "longitude": 2.302363,
            "latitude": 49.882693
        },
        "name": "La Vierge De L'\u00eelot"
    },
    {
        "image": "http:\/\/lh4.ggpht.com\/mt_q6HxeqxEzh05aFGR9wE2vcKiO1-cSjRC7WUs_XAujEKE18rdQrHdsjPu7POA6tgok0EOXBVumUZKgGpZI",
        "state": "pokestop",
        "coords": {
            "longitude": 2.29334,
            "latitude": 49.889664
        },
        "name": "Porte D\u00e9cor\u00e9e"
    },
    {
        "image": "http:\/\/lh6.ggpht.com\/Y1q1K1aoNq6b0xyk1OIBHhLcST7h-Tsz83LcKJaInGfEYFHxSRyFVhvuA6Vwi9vr5RUKaEnsDBAUwdg5yZIs",
        "state": "gym",
        "coords": {
            "longitude": 2.344415,
            "latitude": 49.861295
        },
        "name": "Biblioth\u00e8que Jean Giono"
    },
    {
        "image": "http:\/\/lh3.ggpht.com\/6dsXVxjAqWHupNtLwQ0CKJgZWszVVzpCfBvtK3q4Bn3ykUF0_wokDiUMxpqcw2AXPsizW1ySofB6foDrGeFN",
        "state": "unconfirmed",
        "coords": {
            "longitude": 2.26461,
            "latitude": 49.875585
        },
        "name": "Jacques zwobada"
    },
    {
        "image": "http:\/\/lh6.ggpht.com\/W5_ufz4cDDb6WMz1J78TBzY5-YBOtsFRa6xLtAC_24ZRUvAiidwhJL7zI6qS7v1hQMPSWLm5Xr_mX3QXY14",
        "state": "gym",
        "coords": {
            "longitude": 2.33738,
            "latitude": 49.886132
        },
        "name": "Le Mara\u00eechage"
    },
    {
        "image": "http:\/\/lh4.ggpht.com\/5IzvL-WRtQ4kkLWwxoVrX7IX4F6ocUg6IcKaUbijNT5J4Lw-nq6IyajSbsyZ8EJ6YjY49kwkH-NEx43l8o4E9Q",
        "state": "unconfirmed",
        "coords": {
            "longitude": 2.295926,
            "latitude": 49.890183
        },
        "name": "Conseil G\u00e9n\u00e9ral de la Somme"
    },
    {
        "image": "http:\/\/lh3.googleusercontent.com\/Mhjdb-_8BGslHJ9H5IaikeZXE79mxjdzmH0Y2NY9AohXtPe13AEeE41bdX016OdRqcWfCnpcLXjp_RtWk_k",
        "state": "pokestop",
        "coords": {
            "longitude": 2.266642,
            "latitude": 49.889148
        },
        "name": "Complexe Sportif Emile Guegan"
    },
    {
        "image": "http:\/\/lh4.ggpht.com\/-rI1KlUm3eM5Ljk96d4nI9vYwaRRw8lxM-CY0tD-v4X7fWJIwG97xfPM-xyaKOLb0PM6Vq5hJLqiwrtoQbi4",
        "state": "gym",
        "coords": {
            "longitude": 2.32218,
            "latitude": 49.882977
        },
        "name": "Maison Paroissiale St Etienne"
    },
    {
        "image": "http:\/\/lh3.googleusercontent.com\/U1KBBklkHRFJaf4e6XuuU4Qt5WypGeJAKGDqmbXvlL6f1RU6Ik7FSWuKlmGB8CO5DDiYr-nTHoVK9WmimkW9",
        "state": "unconfirmed",
        "coords": {
            "longitude": 2.264132,
            "latitude": 49.870992
        },
        "name": "D\u00e9partement Informatique IUT D'Amiens"
    },
    {
        "image": "http:\/\/lh5.ggpht.com\/Q2Xg1m7BrkiYVdsq3aiD0FsjI6N9xKcSlvrdu2MmcAs2CRVtR9AXki4JY4_RIfHMIYNSKb2MVGXF6kE-QEhhXyw9u_L9PJVXSNlI3r9TO0zAyiGE",
        "state": "pokestop",
        "coords": {
            "longitude": 2.30695,
            "latitude": 49.890811
        },
        "name": "Gare du nord Amiens"
    },
    {
        "image": "http:\/\/lh6.ggpht.com\/cgdPXF-67-BqY31H37RWVwSYzYMEaYS_kmtZw2x1n4l2M9cWZZ-4bDeQTDv3tTgWkCFvebFD-zYRlxaRm22H6E3kcKH6NiCuXtmljy8lUlOFuM1p",
        "state": "pokestop",
        "coords": {
            "longitude": 2.302688,
            "latitude": 49.898335
        },
        "name": "Amiens - LaFleur Statue"
    },
    {
        "image": "http:\/\/lh4.ggpht.com\/x_6VksHuWYjNBuuJP8lS-c_ENipUA5x13NRIYC6-ZGIau4n7jjMAIG-x5DM6D3I4u3UglU_U5rePNM-q8yA",
        "state": "pokestop",
        "coords": {
            "longitude": 2.307013,
            "latitude": 49.89376
        },
        "name": "Tissage de Velours"
    },
    {
        "image": "http:\/\/lh6.ggpht.com\/F4S4h9OMFibyvI56suZohCulRFS9QScmNnGoKiYL_vowDewQhLHnF9MNgdZ48UG9PVzs2UXPBIWLTIA2q4f5u0GoVEvTr27pg6dUW0MJ9Q-UGqM",
        "state": "unconfirmed",
        "coords": {
            "longitude": 2.296813,
            "latitude": 49.892012
        },
        "name": "Eglise St Remy"
    },
    {
        "image": "http:\/\/lh5.ggpht.com\/lKXXE_YOTdUxb3wP12p7J-aVQ8BiSmFEQufjQSuqLnbFYzL9WH77aWoEr8tyIV7rf4CwUBrqP1fFTP89RsifQQ",
        "state": "pokestop",
        "coords": {
            "longitude": 2.299991,
            "latitude": 49.894836
        },
        "name": "La R\u00e9colte du Cacao, Amiens"
    },
    {
        "image": "http:\/\/lh3.ggpht.com\/gWn95cMIc957yB1UlB13AVdKNIlN0NSVC3m7VJ2q_VPbgBQcLD0HLO4STAidisFvrYZImerutLs0QWH9au8",
        "state": "pokestop",
        "coords": {
            "longitude": 2.312157,
            "latitude": 49.87465
        },
        "name": "Th\u00e9\u00e2tre Jacques Tati"
    },
    {
        "image": "http:\/\/lh6.ggpht.com\/tpMwBYoV_lkxlgVcnFQYjgOMYw4IPD7bGBn0hwK_Mq94h5LkbJ9p701rtpNPZ1k90umNYMvzPFSqzK17Dehg",
        "state": "pokestop",
        "coords": {
            "longitude": 2.297301,
            "latitude": 49.908788
        },
        "name": "Le Soleil"
    },
    {
        "image": "http:\/\/lh3.googleusercontent.com\/MJ-7OAb2fOKc_6gEh8QMK7QAnDxEKhCfMFZZP152RCydSGJuf5giXKWjQSRFuJfUF-lZGLSGiCXMLId1FIA",
        "state": "pokestop",
        "coords": {
            "longitude": 2.32463,
            "latitude": 49.910464
        },
        "name": "Art de fer forg\u00e9"
    },
    {
        "image": "http:\/\/lh4.ggpht.com\/6AVgBTOEdkGrSdKTE2S48G9AjVahw5iWxHsgBoDTPp5Gs9lP8cSiDDm1LhKAFfAWZatn36Lkj3-7X8VwRY6B",
        "state": "pokestop",
        "coords": {
            "longitude": 2.286057,
            "latitude": 49.897744
        },
        "name": "Les Grilles De La Hotoie"
    },
    {
        "image": "http:\/\/lh6.ggpht.com\/n8hdOf6VPQFQjQX50MXGselJYHsKRmNymiW7X1FspJkkIhxIIT5IQQKl8xPsVKuhlrUjPd8-te7Pr4yF0W2p",
        "state": "unconfirmed",
        "coords": {
            "longitude": 2.299155,
            "latitude": 49.893655
        },
        "name": "Fa\u00e7ade Gothique Dans Le Centre D'Amiens"
    },
    {
        "image": "http:\/\/lh3.googleusercontent.com\/sv76va7bMRRKCP7l9lULa9f2svBrmPDqrqAgO7thbNJS0c5jPvWToFXw30tHfW_GEMb79kNxSHV2xG7xDT41",
        "state": "pokestop",
        "coords": {
            "longitude": 2.297012,
            "latitude": 49.901469
        },
        "name": "Le papillon"
    },
    {
        "image": "http:\/\/lh4.ggpht.com\/BNwqb52HX0BDkg9whQvG-LK2Haey8pH9Etq_Dqji7hBv_c-qb9JrWdfE3pdCZD_n-vUXVZeKSIVQYVJJ96x0oA",
        "state": "unconfirmed",
        "coords": {
            "longitude": 2.391791,
            "latitude": 49.849632
        },
        "name": "Boves - Crucifix"
    },
    {
        "image": "http:\/\/lh6.ggpht.com\/nSzbAkly0sb2T4FTveo8sbKBe9ud6sScOZYXHn70P2UbLXyvF7votdoazUaqyRenlXYObNZaSslSqiTv5Ps",
        "state": "pokestop",
        "coords": {
            "longitude": 2.308214,
            "latitude": 49.897594
        },
        "name": "Lookout Point"
    },
    {
        "image": "http:\/\/lh4.ggpht.com\/gZZsBOCVfDh_cW6N0x_0ERmJ3xTXof8KH_Jy5AFmcuX4MbHwpBnAWpedIJVt0aFvxssDjSh9e5JIJDZYvR_f",
        "state": "pokestop",
        "coords": {
            "longitude": 2.307836,
            "latitude": 49.899168
        },
        "name": "Serpent Du Parc St Pierre"
    },
    {
        "image": "http:\/\/lh6.ggpht.com\/OseAtrbfda4fCMy_zsCh49dSqMK2xXRPSUoymrbKzCOfguBqjPWnTdyaiATCdQy2lRGb7J2QIdQr2yX83R9X",
        "state": "gym",
        "coords": {
            "longitude": 2.303088,
            "latitude": 49.891013
        },
        "name": "Statue Charles Du Fresne Du Cange Amiens"
    },
    {
        "image": "http:\/\/lh3.googleusercontent.com\/27cXy9KqvNdtL9HcGZSnRjhrwFA7-zHEwlGcYOoH9-OpZh5tG2o59iLKql8hgWAdgt78r9R24FdSo61M9ZVq",
        "state": "unconfirmed",
        "coords": {
            "longitude": 2.326982,
            "latitude": 49.893065
        },
        "name": "La Battelerie"
    },
    {
        "image": "http:\/\/lh4.ggpht.com\/v_Kbz7ImCdEffH42tEmajVZGMk1Rj4yPw7rl3qXFqeFyKe2A4ez6T28SMTH47mhlN5AUQjVw-rsMSbQcGVTZrw",
        "state": "unconfirmed",
        "coords": {
            "longitude": 2.319215,
            "latitude": 49.894138
        },
        "name": "Les Chalets"
    },
    {
        "image": "http:\/\/lh6.ggpht.com\/MkNdBMI3p44DKeRAjtknl12742sjC_eIZkCjPRH4mbRfekGH6Ra2NlAqiXzLZRh9nWoDZkDixG1vb6I--ip0Gw",
        "state": "gym",
        "coords": {
            "longitude": 2.263829,
            "latitude": 49.876304
        },
        "name": "Porte \u00c9coutilles"
    },
    {
        "image": "http:\/\/lh6.ggpht.com\/3JTP7qHafP3Vl4rHezDKYeKe0FIc9j-C1753QuNbfyb499TEM6DXKoMu3m6iX4KEm1iRkYaTG8dtoIn0DT4",
        "state": "unconfirmed",
        "coords": {
            "longitude": 2.339539,
            "latitude": 49.858259
        },
        "name": "Panneau indicatif de La Garenne - Noisetier"
    },
    {
        "image": "http:\/\/lh3.googleusercontent.com\/PNu6Z5VEge-mSbXIZciBmzhUFf_9bPM8VFbwHFoQI_KD7BjrLImj3lXTYfftYQV8Lli45X1VbmywpD2j7lqX",
        "state": "pokestop",
        "coords": {
            "longitude": 2.301363,
            "latitude": 49.897361
        },
        "name": "Maison Du Th\u00e9\u00e2tre"
    },
    {
        "image": "http:\/\/lh3.googleusercontent.com\/WmSseFdrR-73lg8UUhcqJIGklispH9PN5NKQ65PlOfd8Cw0pZ5mbQzntQMHcCGrJKRyfbGe1iovAiCeceHQH",
        "state": "pokestop",
        "coords": {
            "longitude": 2.272937,
            "latitude": 49.902689
        },
        "name": "Amiens - La Poste"
    },
    {
        "image": "http:\/\/lh6.ggpht.com\/rhofyYOnh45TXNfyRQERx2JM2Fj0h3be7AJiX44cIBJdTpvvBRYvYghKcoKq6CA8ftJnqn5y4C25AuomB9E",
        "state": "gym",
        "coords": {
            "longitude": 2.305218,
            "latitude": 49.883058
        },
        "name": "D\u00e9l\u00e9gation r\u00e9gionale des affaires culturelles"
    },
    {
        "image": "http:\/\/lh4.ggpht.com\/J4XYcMOW2Oyf7BvqGvcF8mxciHMimvqCJ-NsrKcHLubZtigGSQ-ey_2tfe4UMo0otjWXSBF3XuZz3EkyYxLC",
        "state": "pokestop",
        "coords": {
            "longitude": 2.257178,
            "latitude": 49.917425
        },
        "name": "Parc de Monti\u00e8res"
    },
    {
        "image": "http:\/\/lh3.googleusercontent.com\/c7GwnPTAZCIZ62U4er3cjX9JGnuzsLCAdqZIKoXV4oei5tArX38ff256FSxcp5k6NTO0kpEGYA3vcmNjGZBe",
        "state": "gym",
        "coords": {
            "longitude": 2.311175,
            "latitude": 49.877716
        },
        "name": "La Pagode, Centre Culturel"
    },
    {
        "image": "http:\/\/lh3.ggpht.com\/1ZpBMfG6aj2w4-W7JPtb5U89A8d5EpnIYv8Um-_YJsXwHZk2eM7PmVsi4yMNI_dZo3IdIFw1WvPsTWyal08",
        "state": "gym",
        "coords": {
            "longitude": 2.314168,
            "latitude": 49.87688
        },
        "name": "Dubicourt Ponchart"
    },
    {
        "image": "http:\/\/lh3.googleusercontent.com\/HH3_vqKHkls5csxZoDKtNnXN9iz5-_TPqghHIOlxuAFqwtTHkTxGdolQCft_jXvn3TMf6Lke6xUjYqJkHjjC",
        "state": "pokestop",
        "coords": {
            "longitude": 2.290432,
            "latitude": 49.903327
        },
        "name": "Monument aux Morts"
    },
    {
        "image": "http:\/\/lh6.ggpht.com\/D5V1bfObeHXiey90D1Y_swtJF_e_7OvDh9Yp9G5iKqnYQhbdOcEMvd3svc7_vwuWF2sZSg7h88xxzFzonrw7",
        "state": "unconfirmed",
        "coords": {
            "longitude": 2.318052,
            "latitude": 49.879183
        },
        "name": "Rose de Pierre"
    },
    {
        "image": "http:\/\/lh3.googleusercontent.com\/IfmV_y389b3I7QxmnkD4vKyVfGZGoKwFAoHnLyA1qTZKTN906HV1KGHk1pIhMZMj9uTb6_LU0szCUnMZJCfq",
        "state": "unconfirmed",
        "coords": {
            "longitude": 2.275582,
            "latitude": 49.900307
        },
        "name": "Zoo Amiens - Totem"
    },
    {
        "image": "http:\/\/lh4.ggpht.com\/s0YNBEgSHvAvM_6L-4aezPVOfg3xVrc1mZwHXPka2K99dD7wabJbZE_W1XB-ut2SpkSmwPcJ7CJiKEIOLUzOpg",
        "state": "pokestop",
        "coords": {
            "longitude": 2.301644,
            "latitude": 49.89304
        },
        "name": "Tribunal De Commerce, Amiens"
    },
    {
        "image": "http:\/\/lh5.ggpht.com\/9v9rV3gvGxoYmDmmYhi-fwBTd8TZPLQUaB2DD6F2EY1eXhpPUbdjN0_EwkJ91_BZy_RKyxk7LZsqgcRK7950_Q",
        "state": "unconfirmed",
        "coords": {
            "longitude": 2.321628,
            "latitude": 49.900756
        },
        "name": "Mairie De Rivery"
    },
    {
        "image": "http:\/\/lh4.ggpht.com\/LmCdMQ6fkrNKWuMdTLr9WaF2--UxRVTQf8ejUpWpRoPObZmQ4fkJ3C56iSc-661al9lFCM-WSvHX3DD1KfJo",
        "state": "unconfirmed",
        "coords": {
            "longitude": 2.295247,
            "latitude": 49.889906
        },
        "name": "Buste Fr\u00e9d\u00e9ric Petit, Amiens"
    },
    {
        "image": "http:\/\/lh4.ggpht.com\/MFCZXrEDStmOSdI-rb7toOgLy4K5Yb-XQ3LwIL0kGA5Jt1iSuzj01RG0APp45KwVp_FDUazzBFkmCVH8I-l-1Q",
        "state": "pokestop",
        "coords": {
            "longitude": 2.308683,
            "latitude": 49.896756
        },
        "name": "Araign\u00e9e Saint Pierre"
    },
    {
        "image": "http:\/\/lh3.ggpht.com\/4cnzufRcdravNV1q2kTcM8T-Fs8RnRDIhTL6MhLMXa1tpOHPavseJ50CvHI79C3j1bukGwFCLSFjyPXRrgs",
        "state": "pokestop",
        "coords": {
            "longitude": 2.28829,
            "latitude": 49.889223
        },
        "name": "Bas Relief"
    },
    {
        "image": "http:\/\/lh3.googleusercontent.com\/Bd3YkskTUVsFa4V_5k4lZVpOLJYqbvY7BmwyDLeZVf36PnsxCSH1e3pXd5n1jRkWYUAx2JzJ2zcFzCaJpbI",
        "state": "unconfirmed",
        "coords": {
            "longitude": 2.408614,
            "latitude": 49.885284
        },
        "name": "\u00c9cluse de Lamotte Brebieres"
    },
    {
        "image": "http:\/\/lh6.ggpht.com\/C_WQTdSdBedj2-kmmGcvAmlrk4iuy-4la7d18g0p_L3h9Vv6mZhQeviLasY_ZbwYNkijICQyKhpqkE-lvS45",
        "state": "pokestop",
        "coords": {
            "longitude": 2.302677,
            "latitude": 49.890306
        },
        "name": "Dome Tower"
    },
    {
        "image": "http:\/\/lh6.ggpht.com\/aSv1r7s1ANRs2PVCcOTYSSNxdx1TXqmIFiMvipCZr0G_wAnj2_AhmFFvtm1b-2L1qSly67McFi1IopD5uWTD",
        "state": "gym",
        "coords": {
            "longitude": 2.29845,
            "latitude": 49.901008
        },
        "name": "Square De Darlington"
    },
    {
        "image": "http:\/\/lh3.ggpht.com\/j0DukUf_FIYaaCZmwYa4yhPn8GokM0xQD0x0zP-piCxM4tGZHUWwakunvnGu_6mtYNGwiFsr0Eljq7DTiaU",
        "state": "pokestop",
        "coords": {
            "longitude": 2.302845,
            "latitude": 49.889742
        },
        "name": "Chambre R\u00e9gionale des Comptes de Picardie"
    },
    {
        "image": "http:\/\/lh5.ggpht.com\/i2wYpGYqQSTAT8FtTliQ2CceyB739Mkzph5QkNlDP_AdvxqTrKAUECpqj7D95BdCv89KyVUbHAlsFbbn5r5nyg",
        "state": "pokestop",
        "coords": {
            "longitude": 2.29174,
            "latitude": 49.890239
        },
        "name": "En M\u00e9moire De Lamarck, 1744-1829"
    },
    {
        "image": "http:\/\/lh5.ggpht.com\/kw132E2xK0TgZAuRnISX-mZ_hALZzOZnjjO4qlq81sI8U2pasY3ea1pcweIENoWYhtZhd6_CgDo-TzHPhc5gAA",
        "state": "pokestop",
        "coords": {
            "longitude": 2.28578,
            "latitude": 49.897465
        },
        "name": "Monument Des Morts Au Feu"
    },
    {
        "image": "http:\/\/lh4.ggpht.com\/zJGP1KaCRV8ebgDhlarfsv-E31aYzcNQFxSE72vtFW6RbTipMFcqflYpQ8gg-0lQsWYsVlInKE45u7S_ghk",
        "state": "unconfirmed",
        "coords": {
            "longitude": 2.303836,
            "latitude": 49.895373
        },
        "name": "Ch\u00e9s Cabotans d'Amiens"
    },
    {
        "image": "http:\/\/lh3.googleusercontent.com\/AETG3ryE0QyWeVOgzUPdbjIKJAZSzslFNa5wJBHZ_-6W3aKNrqBSwSRBNPJtk4oKtYrJ23whiO0fOjKAWhtW",
        "state": "unconfirmed",
        "coords": {
            "longitude": 2.275429,
            "latitude": 49.872078
        },
        "name": "Fontaine Du Parc"
    },
    {
        "image": "http:\/\/lh5.ggpht.com\/tsZ2hYwNmTThiXMpm9XghIGH8m_yz686syOi2li3jyQCpKw9QRM1t8M0vvAs8LhD-73CGvnG7I1NkI3x-Vg",
        "state": "pokestop",
        "coords": {
            "longitude": 2.301316,
            "latitude": 49.890619
        },
        "name": "Com\u00e9die De Picardie"
    },
    {
        "image": "http:\/\/lh3.googleusercontent.com\/YyBoW11GU7YoSYp8ZEM566yFggD_kxp32jmyvHBumtg6kyYDC-t2B0a_N_elTiheLPT2qFqrXt7Di9bsp-OW",
        "state": "pokestop",
        "coords": {
            "longitude": 2.326125,
            "latitude": 49.883448
        },
        "name": "Sculpture Murale Masque Grec"
    },
    {
        "image": "http:\/\/lh4.ggpht.com\/9hXvKQjX8mynDPpRQGv6__JjL2FdFkTZTk1dsHHaIyo9dh3f4kwLWq1BVemYTUfD9Tpz6JgMq3ZS0BmlNOQzMg",
        "state": "gym",
        "coords": {
            "longitude": 2.276036,
            "latitude": 49.901529
        },
        "name": "Zoo Amiens - Mural"
    },
    {
        "image": "http:\/\/lh4.ggpht.com\/xTaNr60rT_xXzvOFs84_cTfro0oUykw4t0J09O04xLyDQtP67_bgSS7Z7Cdky8FlXnH5Dy8DekvC3aHK1qTX",
        "state": "pokestop",
        "coords": {
            "longitude": 2.287897,
            "latitude": 49.891612
        },
        "name": "Samurai Wall Art"
    },
    {
        "image": "http:\/\/lh3.ggpht.com\/_DJnnJ6y0r2DeEnkeG6XXw0pUPn6VVR4WcKs0E7SbrDzcPyY_IsqA_FV3KatwAXq9ql2GHmxuUM_nHVCxMe-",
        "state": "pokestop",
        "coords": {
            "longitude": 2.305345,
            "latitude": 49.888261
        },
        "name": "Le Panth\u00e9on d'Amiens"
    },
    {
        "image": "http:\/\/lh6.ggpht.com\/LpiSIEs22MWJ3RmQrfVZtWZxNugOxesD3GcpV8_aWKBlKK-_acYAuxM58HnhEvVLmCftN8dh1EDja_D0OOUjGQ",
        "state": "pokestop",
        "coords": {
            "longitude": 2.297345,
            "latitude": 49.893357
        },
        "name": "Fontaine"
    },
    {
        "image": "http:\/\/lh3.ggpht.com\/OGeK8afmUYAe019IBHu1qQmJxmnZb8a5wuQ-Br_kjozfVZJgWSw5kL7UG5EPP-op7P_IFOAeWykJ4qcK-2WYK2y1G_nfmApvWBYNrp2-ZWpza77dVA",
        "state": "gym",
        "coords": {
            "longitude": 2.303141,
            "latitude": 49.887987
        },
        "name": "Place Joffre"
    },
    {
        "image": "http:\/\/lh6.ggpht.com\/slmCkUl-bpUrS9_z6cvBinsY6zoaU-wyObxTbD6e_Mlol_MLHeJwMIWv9t1gWG6xFJAhxzCGHzJu0cU6mV9B",
        "state": "unconfirmed",
        "coords": {
            "longitude": 2.257488,
            "latitude": 49.91491
        },
        "name": "Bescoue Estoile XVI"
    },
    {
        "image": "http:\/\/lh6.ggpht.com\/QsXS2VHWDPM0dKZsdy_eTZiYX80r7B3i6tJvWXHCoZdSk4S8y3SN_w_wtAoyPa17y7GGnJzpciTFuQCKyQ",
        "state": "unconfirmed",
        "coords": {
            "longitude": 2.276801,
            "latitude": 49.866405
        },
        "name": "ADSEA 80"
    },
    {
        "image": "http:\/\/lh3.googleusercontent.com\/edouJXWgbK57TfXNvvFuJooJqM8rj3_f4SZsYfVy8-vzNdry2qyqplXxpVuq_NIZF20d_7SI_H8ZZvjqVoSK",
        "state": "gym",
        "coords": {
            "longitude": 2.292402,
            "latitude": 49.895901
        },
        "name": "Fresque Murale"
    },
    {
        "image": "http:\/\/lh4.ggpht.com\/JNUFfLruhiEtIYB79O_swSztPLpq2Dxfx75Qvl_I5BII10upTTR48HiiSX3P6uSAWs3VNzgJ-LPNriMXz5PO",
        "state": "pokestop",
        "coords": {
            "longitude": 2.295663,
            "latitude": 49.889759
        },
        "name": "Banque De France"
    },
    {
        "image": "http:\/\/lh3.ggpht.com\/AMTpal5tX6x6lIRLt6vW18OohHDxWvlcL_UvbD5e040op5AHGqA1bpj_5pOVhVQaD07HL3wn4k1laZf_nXQq",
        "state": "gym",
        "coords": {
            "longitude": 2.297544,
            "latitude": 49.891883
        },
        "name": "Horloge du Passage des Jacobins"
    },
    {
        "image": "http:\/\/lh6.ggpht.com\/pMxpN2RnINqm9Kpahn582k80fErAeGMqvlgc0-i1NPFjPNBjPg3UtPQW-PODTXmTakgtxBz19D0Xctn4Xza8SQ",
        "state": "pokestop",
        "coords": {
            "longitude": 2.296504,
            "latitude": 49.889813
        },
        "name": "Armoiries Du Gouverneur"
    },
    {
        "image": "http:\/\/lh6.ggpht.com\/dh7PWl4XQxqOXemfh-9ULzmQZlpWhMY1JzOmMhWMUTafImdGm7pH6CuwAwAwwq5EiXPYPqrVhkhDl07b9x8uPA",
        "state": "gym",
        "coords": {
            "longitude": 2.310867,
            "latitude": 49.889848
        },
        "name": "Gare d'Amiens"
    },
    {
        "image": "http:\/\/lh3.ggpht.com\/T04BnYx4DmTyQoH-e4U6KsoVximJIXmc6-LztCedA-OnYpg64C_m5lUd-Vozg6JPp2EF6xf7gdfpeZho73rr",
        "state": "pokestop",
        "coords": {
            "longitude": 2.31301,
            "latitude": 49.895191
        },
        "name": "Ile Aux Fagots"
    },
    {
        "image": "http:\/\/lh5.ggpht.com\/c2TxDh-dNiXLH-I6LVCJBCTye6dC0pDJzt27x714LE0pAG_6CKVW0wAljn09TyGZ-GauGlWF6U6qYRuZz137",
        "state": "gym",
        "coords": {
            "longitude": 2.308298,
            "latitude": 49.887438
        },
        "name": "Jesus Christ"
    },
    {
        "image": "http:\/\/lh4.ggpht.com\/Bn5MPqKbWO6B7DvjlDC_h2x_UkLUy9FJ8CQFGee3EpPRMAiZbPh4U8d4A3bRkTJpBolrW5-3rK5inaA6zA2D",
        "state": "pokestop",
        "coords": {
            "longitude": 2.297428,
            "latitude": 49.901589
        },
        "name": "Serre Hollandaise, Jardin Des Plantes - Amiens"
    },
    {
        "image": "http:\/\/lh4.ggpht.com\/5QOj0qApNL02rL-jXISXkTX4hG8FdJvzvVeqe_pUUwVujKIgeffnHBcRhr5HFEy2noEl3P2PvTWTCcvQkazB",
        "state": "pokestop",
        "coords": {
            "longitude": 2.295925,
            "latitude": 49.895365
        },
        "name": "Beffroi Cadran Solaire"
    },
    {
        "image": "http:\/\/lh6.ggpht.com\/GYRE0QzzdM0diRG1ecG2tjWqtrOOeX7E8zV9xFufFr80FPhWiH3VWxGqOI-cinXgkdOd9pOU8c1zXGj9Qj5rMA",
        "state": "pokestop",
        "coords": {
            "longitude": 2.29935,
            "latitude": 49.894975
        },
        "name": "Le fileur"
    },
    {
        "image": "http:\/\/lh3.ggpht.com\/rEjdMGqpf1pVSk5p59DjcrZQ9gykgPVDiB1hn47RAeTi3jYQ9ksLrrNqXx_sM1qqeSgjK7WWZGM97f7qCJmr",
        "state": "pokestop",
        "coords": {
            "longitude": 2.285072,
            "latitude": 49.881474
        },
        "name": "Fronton D'angle"
    },
    {
        "image": "http:\/\/lh5.ggpht.com\/aFppKZo6ePwcWP6uM85rVQ-esm_RurAV4sTDU5lg455Z3soHbK0eQ4JaTZ5HWSOu0_ixmlzhQ1lJSDRlrhdE",
        "state": "gym",
        "coords": {
            "longitude": 2.301646,
            "latitude": 49.871059
        },
        "name": "Alexandre Dumas Mural"
    },
    {
        "image": "http:\/\/lh3.ggpht.com\/4Zr69kcWj6oEyzPC8BfRQ8oM1O4yUl2Z3BUdgT-4erylv7XTeVcE4iEVOqYZLa5vhozgmFX1kps8t8MSqfjUew",
        "state": "gym",
        "coords": {
            "longitude": 2.329448,
            "latitude": 49.875108
        },
        "name": "Eglise Coeur Immacul\u00e9"
    },
    {
        "image": "http:\/\/lh4.ggpht.com\/MHDqxu8TYWmiTcjjYMRRBH3CMfpGv9TBzubvrQQbx4qint1vnah7fnA25mKWbCaN-vqbxBg98v65DgJjvaQM",
        "state": "gym",
        "coords": {
            "longitude": 2.34111,
            "latitude": 49.861842
        },
        "name": "Sainte Famille"
    },
    {
        "image": "http:\/\/lh4.ggpht.com\/QX4Tz3LTTcyGGrklmSmhV0zl1K2YsvIhIAIj5L7LNWlIFfVACPIIcko7pEH3NLETIVI77zEu1C74KJQ5FdC-",
        "state": "pokestop",
        "coords": {
            "longitude": 2.362385,
            "latitude": 49.867664
        },
        "name": "Ch\u00e2teau D'eau De Longueau"
    },
    {
        "image": "http:\/\/lh5.ggpht.com\/jxPR_wPo7u2JDUc6SAyi7wm0LT5PMBMIGm8sILKUTYGkyJylOfcU8KnlPKRfp8DPHt3FwpAlIpzftzrlW9KA",
        "state": "unconfirmed",
        "coords": {
            "longitude": 2.322364,
            "latitude": 49.913921
        },
        "name": "Residence Parc D Allonville"
    },
    {
        "image": "http:\/\/lh6.ggpht.com\/rjmQHBlTjZ_CxdXO6IrxSN_cgf_AoE4tS7hio3LScVFRrMjrAnzwRVz0SfIi0ZV6RSmkC5a5IcE1ev0HFMA_",
        "state": "unconfirmed",
        "coords": {
            "longitude": 2.302448,
            "latitude": 49.890997
        },
        "name": "Facade Square Cafe"
    },
    {
        "image": "http:\/\/lh4.ggpht.com\/AcooxkOTndHtKfQ4Tx-3nksSP7mEs4QyZcqaYRTLT_ueR8ShuKeDDgHoZw7ZooI1rgEA79NOcf1mEduB3RFdYQ",
        "state": "unconfirmed",
        "coords": {
            "longitude": 2.32465,
            "latitude": 49.902126
        },
        "name": "Paroisse St Fran\u00e7ois D'assise"
    },
    {
        "image": "http:\/\/lh3.ggpht.com\/DVdsRLhWVAmEsq5TcpbknBJLmw5BUHNCeVm2r3NcXxdEeWs9JyB1Cluu9tCAqJashBKJy7vPInPtj7HOIPAq",
        "state": "pokestop",
        "coords": {
            "longitude": 2.303191,
            "latitude": 49.893905
        },
        "name": "Place Pierre L'Hermite"
    },
    {
        "image": "http:\/\/lh3.ggpht.com\/T9hewmA45hfr8_zZA2JexwgU9NSXAOJzm3iMUfI_EX_npiKrhdj-JTrsDkjg7pyQSe5c3D8LE3_e__kOX7av",
        "state": "pokestop",
        "coords": {
            "longitude": 2.301569,
            "latitude": 49.898906
        },
        "name": "B\u00e2timent Des Minimes - UPJV, Amiens"
    },
    {
        "image": "http:\/\/lh5.ggpht.com\/EEqklCHGkZeE7JQHk6J12EgUOD2mMzLpotJB7Ku8vrgmO_66_-s8nprloO8gbpUknsZdJzSNetqcMGBU5hA",
        "state": "pokestop",
        "coords": {
            "longitude": 2.302683,
            "latitude": 49.889118
        },
        "name": "Hotel Bouctot-Vaniez, Amiens"
    },
    {
        "image": "http:\/\/lh5.ggpht.com\/WYGsS0IsEMCo3G9TKoeIeyXXtOjPAxiWV7dw2r730uRNdh_U6Fs50gZj78JDDMRjUd7wvWj-trGyzvJJt-53",
        "state": "unconfirmed",
        "coords": {
            "longitude": 2.297612,
            "latitude": 49.892333
        },
        "name": "La Fa\u00e7ade aux Chandeliers, Amiens"
    },
    {
        "image": "http:\/\/lh3.googleusercontent.com\/i7UAoZ99pdC0f_3NQNrRvd6xb5jkyEh7tTwrWeLZlaoW7yX8T87DHzcmAJ-UOeyPLSnhpvChl8u87-_K7cvD",
        "state": "pokestop",
        "coords": {
            "longitude": 2.296992,
            "latitude": 49.902108
        },
        "name": "La Maison Au Chat"
    },
    {
        "image": "http:\/\/lh5.ggpht.com\/il4uhy4ZaZI2i4o5qyHuCyxlWeSDRtdzi1THhdbOpP4o33hsUHCvs0U-SHFyIsh6qRuydFiTM-Obs9JSo3o",
        "state": "gym",
        "coords": {
            "longitude": 2.331477,
            "latitude": 49.891201
        },
        "name": "Une Source D'inspiration"
    },
    {
        "image": "http:\/\/lh5.ggpht.com\/UAfDjCew3fpNzwQwHCduMuxrd4KFQvRi_yoeqPA6PMxVYc49szwYIwTJsk-ynGmpGWUKKdSwomr8n_3wohN7",
        "state": "gym",
        "coords": {
            "longitude": 2.332947,
            "latitude": 49.89126
        },
        "name": "La Chasse"
    },
    {
        "image": "http:\/\/lh6.ggpht.com\/wuH0tJAKLJK5zThQ7_4dv8gRzI0cN-EruFQ0LerP2HBbc8tqztv2fS0gjmYv6T6Ds2gkxjCnEWRylsRXT9ru",
        "state": "unconfirmed",
        "coords": {
            "longitude": 2.30463,
            "latitude": 49.883016
        },
        "name": "Fen\u00eatre D\u00e9cor\u00e9e"
    },
    {
        "image": "http:\/\/lh3.googleusercontent.com\/y9E-Ibg6c_mUdDTN9XLmkeeObC3P1RrRA2jOBaOEgAzZ4A4N8i1tbugFpgJJxNBXp7fcGwIvAOtF36eCwpRC",
        "state": "pokestop",
        "coords": {
            "longitude": 2.300141,
            "latitude": 49.889901
        },
        "name": "Ste Clotilde"
    },
    {
        "image": "http:\/\/lh6.ggpht.com\/Pldbd8uZ9J794hT-YN8q2Ajw8BEGkRS3Q2yDUsQIInin4VvpYDeLiXjsolEB-3T8pcy-IQ0IMTdquWUEcbNh",
        "state": "pokestop",
        "coords": {
            "longitude": 2.315191,
            "latitude": 49.874128
        },
        "name": "Fresque"
    },
    {
        "image": "http:\/\/lh5.ggpht.com\/MWUpZV25f3G0K46Kxn4rsZq0OGexIze-hjHV5mr8BXgM7X5PwRzFiOK0NmmdNCwlFrsImUjrmByUhYM4ObOgyw",
        "state": "pokestop",
        "coords": {
            "longitude": 2.30193,
            "latitude": 49.891475
        },
        "name": "Fa\u00e7ade Flamande, Amiens"
    },
    {
        "image": "http:\/\/lh6.ggpht.com\/9ahlrs7CPbjSgvNoT-xn21pSaHpdBdZ_VeyXpV3NdFoCeaXMnBxxWIt4rv4UbGUVTDTPwrfqqDuXEbCLVVQS",
        "state": "pokestop",
        "coords": {
            "longitude": 2.300111,
            "latitude": 49.895926
        },
        "name": "Fontaine Dans Un Tunnel"
    },
    {
        "image": "http:\/\/lh5.ggpht.com\/3hssFVPPG31tMgW6wpFOYt3p7l8V-hMgL_gouGxakSyFk5VVvGZlChQq51RIJkbZAtbyoQu5Sy7LhYeaL0Ld",
        "state": "unconfirmed",
        "coords": {
            "longitude": 2.259415,
            "latitude": 49.909728
        },
        "name": "Memorial"
    },
    {
        "image": "http:\/\/lh6.ggpht.com\/d0BOOeBZ_pGrVtqPvVVN_jJBmPchgFRl5__QDFtg-OJxNb9zifx7diD6ehhrwzN2dCAF1p7nst8Rs8bDCjZs",
        "state": "pokestop",
        "coords": {
            "longitude": 2.278366,
            "latitude": 49.901948
        },
        "name": "Eglise De Hem"
    },
    {
        "image": "http:\/\/lh3.googleusercontent.com\/rPLcvAgznvMv1zYFMrqvxvjVuWU4yrfWvqldn2VI9-f-9c473SWNPJDu5iFZhqD25_kSNFIl8zezYj9W9gWz3w",
        "state": "unconfirmed",
        "coords": {
            "longitude": 2.300474,
            "latitude": 49.890155
        },
        "name": "Statut Architecte"
    },
    {
        "image": "http:\/\/lh3.googleusercontent.com\/JmXw46zIsDEM001dnL_feLKV-sCL-QR62bZsSfAJ169CP9UjSraSrhW_4Wa-Xzr1eJcC9GZniwr-JN3rWZIrCw",
        "state": "pokestop",
        "coords": {
            "longitude": 2.287107,
            "latitude": 49.888535
        },
        "name": "Le Porche%u200B au P\u00e9lican"
    },
    {
        "image": "http:\/\/lh5.ggpht.com\/hBlVAXrkbFzw4Cd_K2BVp2zpnroANbIcat0uwrnm9sBP67TgCpG6PGBl_Q-5eMYussclmZP1-vXo8ig4tK52",
        "state": "pokestop",
        "coords": {
            "longitude": 2.291036,
            "latitude": 49.907227
        },
        "name": "Le Premier N\u00e9, Amiens"
    },
    {
        "image": "http:\/\/lh4.ggpht.com\/IBFmRtod44wsD0b__TfyD4Z_e12jxU-N3xMIVhscjmSOOgQaLvqndnVOVugV0I2Q0v5ZAN87--A62qF3vU2g",
        "state": "pokestop",
        "coords": {
            "longitude": 2.31484,
            "latitude": 49.894415
        },
        "name": "Mimosette 1926"
    },
    {
        "image": "http:\/\/lh3.ggpht.com\/5k9sad40ek4QfUTSpKseuimGiLnddX295eE6VVSsk0EyUjvgKEaHz4vGR2SxDYib3ZtaPa6tISasOFcjXoQQ",
        "state": "pokestop",
        "coords": {
            "longitude": 2.304668,
            "latitude": 49.897736
        },
        "name": "\u00c9cole de St-Leu, Amiens"
    },
    {
        "image": "http:\/\/lh3.ggpht.com\/ahZcXWbLMhA4PM3IcSa6NyqX022PBtLdKtOyBHy43XBrKULEJu3C-Dk6iCJwxdcT7gltd04qzzRGAt2iIwcKHA",
        "state": "pokestop",
        "coords": {
            "longitude": 2.29987,
            "latitude": 49.891854
        },
        "name": "Ancien Cin\u00e9ma"
    },
    {
        "image": "http:\/\/lh6.ggpht.com\/vVQ00HualCCgxu1AoWxB5FZWxrmB2fSKXvXsMIKFasAvLGkeJMj2ykc-Ovy8GTbXZi-FjjWcOZDWmQ_lrfcD",
        "state": "unconfirmed",
        "coords": {
            "longitude": 2.29718,
            "latitude": 49.893124
        },
        "name": "Colonne du Lion"
    },
    {
        "image": "http:\/\/lh5.ggpht.com\/nRH74qI7x7agEe_BgJDuZ3TSfKjRpElt-kBx0-d5nE3uEUKqqKzhQ0j8MAKTihbQ4Lvir-jROxKCIr_6bmgZ",
        "state": "pokestop",
        "coords": {
            "longitude": 2.330721,
            "latitude": 49.885791
        },
        "name": "Modernist Church"
    },
    {
        "image": "http:\/\/lh3.ggpht.com\/9EpiwrXzskmmLwhDTwwsQ75FuLJv1FAVwOqW_4XRWCsTk93osvr7HNIQgtoBaRfknprZWaR5P3piY8VPx50",
        "state": "pokestop",
        "coords": {
            "longitude": 2.294813,
            "latitude": 49.890422
        },
        "name": "Amiens - Bustes Angle Sud-Est Mus\u00e9e De Picardie"
    },
    {
        "image": "http:\/\/lh3.ggpht.com\/2ZCsTukL-aSlokdIRMi3KLusu7K7jPHQQBNcw4EPJUXc6hfKsV0JmCLiWE6Ep4-iHgEMsXEQmLInrpfgEuN0",
        "state": "pokestop",
        "coords": {
            "longitude": 2.301107,
            "latitude": 49.897472
        },
        "name": "Amiens - Les Demeures"
    },
    {
        "image": "http:\/\/lh5.ggpht.com\/s-OIWdDVMzf97fMfspvJRjLY9oNIgA-szTv7PKuGiRW8Ho1MHFHn2T-TJahSgOm2KpDndyK8QlD4fZnWf-yw",
        "state": "pokestop",
        "coords": {
            "longitude": 2.299102,
            "latitude": 49.893131
        },
        "name": "Huissier De Justice"
    },
    {
        "image": "http:\/\/lh5.ggpht.com\/rrbYU1CElkGCkJnpl0nRQqJ46vYcQOto2FPMU8VU4OJ1MoDZhUpJiQAcY4DrzHAvLV5VqVwPTXozr8ShwRUu",
        "state": "unconfirmed",
        "coords": {
            "longitude": 2.300106,
            "latitude": 49.892168
        },
        "name": "Grands Garages de Picardie"
    },
    {
        "image": "http:\/\/lh4.ggpht.com\/tBzlezojbDBugvjmtIdAxvNaVTElrwaBnzZIyY2hOPmaRP5Wu67UhoieSEz7-90BUE_w0E4dp4vNzcPwlpk",
        "state": "pokestop",
        "coords": {
            "longitude": 2.291041,
            "latitude": 49.895859
        },
        "name": "\u00c9glise St Jacques"
    },
    {
        "image": "http:\/\/lh5.ggpht.com\/JFURQ9M8RiNtYq0JUP_Bl0pMUIoI8V5kOuh_4l0WnlHHCaLXnJxcidD2ZPp79eokeesJ-5oTQ1Vw5YMB-IH2ZA",
        "state": "pokestop",
        "coords": {
            "longitude": 2.31132,
            "latitude": 49.875405
        },
        "name": "Le Chameau de la Cit\u00e9"
    },
    {
        "image": "http:\/\/lh3.ggpht.com\/Q2mXD4H398jcZZqvXyms3zTn47XG_ihWFtbe0qGqeKwJxO_uM4mT-yUseX1WLU-qKQFg59kdEr22EPM6R89L",
        "state": "pokestop",
        "coords": {
            "longitude": 2.325772,
            "latitude": 49.883258
        },
        "name": "Les Dieux Grecs"
    },
    {
        "image": "http:\/\/lh3.ggpht.com\/1zDrP8vJQ7DsD9yStOL5AriYJfFpuM5ocbCKamByYeQnha2HSZNmFqxCV13K-nQoIOSBMSojWXRYa3bMioA",
        "state": "gym",
        "coords": {
            "longitude": 2.305955,
            "latitude": 49.887389
        },
        "name": "Cimenterie Simon"
    },
    {
        "image": "http:\/\/lh3.ggpht.com\/LZB4g24DYDnG6RMVHFv-mL3m4RVw82gyH9jY2xu0V6zsGNg80r9VrDHzWOwXB8E-q0V-Odoz4S4QEQrVMlM",
        "state": "unconfirmed",
        "coords": {
            "longitude": 2.294028,
            "latitude": 49.897229
        },
        "name": "Porte Historique"
    },
    {
        "image": "http:\/\/lh6.ggpht.com\/7-Ii6sMxg2HVTP3ot55C6QblkScDgb9ShXBpKa0RPm_R5_oTiL3Np5B7Acmt3hA8MAGqzSPrkWVhK4lnwuo",
        "state": "pokestop",
        "coords": {
            "longitude": 2.315226,
            "latitude": 49.886797
        },
        "name": "Rosace Du 7"
    },
    {
        "image": "http:\/\/lh3.googleusercontent.com\/UE_sYiZP00X60uqT8uvy19xj_c3-F9VpdH4RdE_Ga_YxE9lDIzzjL2OpqOzzIfxfGiDV_TmTMb3O0-Bn8r0",
        "state": "gym",
        "coords": {
            "longitude": 2.305423,
            "latitude": 49.89439
        },
        "name": "Eglise des Augustins"
    },
    {
        "image": "http:\/\/lh3.googleusercontent.com\/BEhM9fVDN-b7ggLubMfsJ0JhkrXoOPjzEmhCzRibKL5ICSK6UgfNacfSV8ds9k86wPJUo_fsHTsP1FfjJZ7j",
        "state": "unconfirmed",
        "coords": {
            "longitude": 2.309558,
            "latitude": 49.922931
        },
        "name": "Portrait De Franck Sinatra"
    },
    {
        "image": "http:\/\/lh3.ggpht.com\/kjFQsnymaZ56Dfbd4YoUUfBC4gTYVOGJrd1BZsfoSE176IeFrV6H3YWo7dMfuSXZTThp8AFnGqtttPSzgg3x",
        "state": "unconfirmed",
        "coords": {
            "longitude": 2.303337,
            "latitude": 49.89122
        },
        "name": "Le Ring, Amiens"
    },
    {
        "image": "http:\/\/lh3.googleusercontent.com\/gL6FVgozS00VxRpZGa9cDODiTz7wu61qpOk-puVflB6gwJIAMikZAcFhU4mIQ9UN_saK199g1JybBkqJeMDX",
        "state": "gym",
        "coords": {
            "longitude": 2.279209,
            "latitude": 49.867891
        },
        "name": "Tipee Du Buffalo"
    },
    {
        "image": "http:\/\/lh3.googleusercontent.com\/rz-9EW1n0IG-qeZb-YcToJCP8xdI99ssLeTfdLLtDfjAjjzfAEfkb5ZoMujD9T-PZp5pI4PxZnCMtNeDl0Z3",
        "state": "pokestop",
        "coords": {
            "longitude": 2.298016,
            "latitude": 49.901453
        },
        "name": "Le fou du G"
    },
    {
        "image": "http:\/\/lh5.ggpht.com\/k0pz8-4Vgy3Pv4QZRGtsaAbhc3w3c40fJDzm4CFmfsyUsU90LADKBkTCql4vHYJNRzVqhxtKHiDDxSU1RXZUVA",
        "state": "pokestop",
        "coords": {
            "longitude": 2.312196,
            "latitude": 49.910739
        },
        "name": "Piscine Le Nautilus"
    },
    {
        "image": "http:\/\/lh6.ggpht.com\/WyZ-teUcUXOgRxMxkxKbO6DZfMSWUzCReBAqKCwUIwGdP17ekZfrHYA7j3aGhWUQUb9eWDAwpvEvQsBiAGI",
        "state": "unconfirmed",
        "coords": {
            "longitude": 2.29942,
            "latitude": 49.895164
        },
        "name": "Broc N Roll Music Store"
    },
    {
        "image": "http:\/\/lh6.ggpht.com\/NCTnffkmMQH1L1QiFMRUd97msdIYeC6QfJczjsXePvQpJHIK3NBT6xVBOuMpevn9LJNlUOvq6RuB6UL1sbYn",
        "state": "pokestop",
        "coords": {
            "longitude": 2.303914,
            "latitude": 49.884431
        },
        "name": "Porte Sculpt\u00e9e"
    },
    {
        "image": "http:\/\/lh6.ggpht.com\/tjVw7Xx2TS3GKMWgkHhSFx941NaUab0hM8CVS53ac9MCMeW6TR4jrwgT7RdPCeOudAA4Pc13CgCGEKmosBn6Ig",
        "state": "gym",
        "coords": {
            "longitude": 2.304705,
            "latitude": 49.898684
        },
        "name": "Amiens - Maison de Chasse et de la Nature"
    },
    {
        "image": "http:\/\/lh3.ggpht.com\/j-HGEskPHZbZdk3Koc6pKBVnsPUE68NV4pwzTVe-QaxYLJG4ofYPEvO9s7ER0CBK2BmVpsHnQ0CoL_1byG1g",
        "state": "pokestop",
        "coords": {
            "longitude": 2.312857,
            "latitude": 49.874373
        },
        "name": "La Poste Perch\u00e9e"
    },
    {
        "image": "http:\/\/lh4.ggpht.com\/gn5Uq54iQOdhBBu0vMaP4EyvTf_53UqVL--CHqZnacjVC6t-wvAHvpr1n357as274_eB1WB2zwXrx5_0-eWX",
        "state": "pokestop",
        "coords": {
            "longitude": 2.296627,
            "latitude": 49.895502
        },
        "name": "\u00c9glise Protestante \u00c9vang\u00e9lique d'Amiens"
    },
    {
        "image": "http:\/\/lh5.ggpht.com\/7_e4PvLb8YGA0jIytSiW2yAGqa3kztxgeG5tPRO5tULCpgMGO3vPAUq4NW5RDio5utwMGhUF5K6tgfdjHlDemg",
        "state": "pokestop",
        "coords": {
            "longitude": 2.286714,
            "latitude": 49.893235
        },
        "name": "Peinture Murale"
    },
    {
        "image": "http:\/\/lh5.ggpht.com\/B_F6lUS_ca3PUmk6_5l9aAqRnRfYj-Y6NLeDqeejz_toBlPUacIBKSSNoOCBZaiGAi_pvSqhhZ3rOMwi11da",
        "state": "pokestop",
        "coords": {
            "longitude": 2.296424,
            "latitude": 49.891113
        },
        "name": "Armoiries \u00c9toil\u00e9es"
    },
    {
        "image": "http:\/\/lh3.googleusercontent.com\/I4g4WXfiTtMyuCJefFy--aQTIClNA40uPiNZGb8xMVQsH5bc9T9IVUwhiwvEwupAYL_YV2P4ygYboxsbm8g",
        "state": "pokestop",
        "coords": {
            "longitude": 2.296155,
            "latitude": 49.895492
        },
        "name": "Beffroi, Amiens, Somme, Picard"
    },
    {
        "image": "http:\/\/lh5.ggpht.com\/_cUd4ONKHQyWUxgsJ3uAztI6KxoLT2gJq8fJXGb7C6bVokgo4a6YpoFA3m4pN-_tn_0XupTtgHFqeaE7svtU",
        "state": "gym",
        "coords": {
            "longitude": 2.330203,
            "latitude": 49.885142
        },
        "name": "Pont Multicolore"
    },
    {
        "image": "http:\/\/lh4.ggpht.com\/P-EgbO8lFee21KMXq0hqeT2cEz59nUJ3KHZlcWqZHVO_6GJ-6TqKpKjh92x4f9hwFn_prGUhgAUQo4o22LBS",
        "state": "gym",
        "coords": {
            "longitude": 2.352125,
            "latitude": 49.86347
        },
        "name": "Gare de Longueau"
    },
    {
        "image": "http:\/\/lh4.ggpht.com\/KJ69-2XZu7_zK_PLZ5CbLXmHADdw5VPDq_J3xCREcBtO9_m9cqgFPcnMDCFTz4UzxDUbOijaRjNEbh3F9vd6mQ",
        "state": "pokestop",
        "coords": {
            "longitude": 2.307017,
            "latitude": 49.888075
        },
        "name": "L'Orange Bleue"
    },
    {
        "image": "http:\/\/lh3.googleusercontent.com\/0Zi4GqXQoriSw_Ua-_xpJARpP1imPzF3o9RFgtBIy7Bl4tS3JScA8ofad8KH7plKJiFedqsxnjoJszNR5xEOQg",
        "state": "pokestop",
        "coords": {
            "longitude": 2.302223,
            "latitude": 49.880843
        },
        "name": "Hommage de l'Amiens Athletic Club"
    },
    {
        "image": "http:\/\/lh5.ggpht.com\/qw5tB1tvaUTSt-ysgEJb5eqBbnkXKa-xosjGKp4lZ5xWSOm-bXvtqFdqgBu2U--m5leFDXXiPyTEW8zWPwk",
        "state": "pokestop",
        "coords": {
            "longitude": 2.273697,
            "latitude": 49.904559
        },
        "name": "Giant Dachshund Mural"
    },
    {
        "image": "http:\/\/lh4.ggpht.com\/T7WkWfWOOh_-yM8mY42Mnu_JwGWSiU0vb0xkQnZzMTBOq9yOla3mpsTEV-tARSmwP7SKHTSLOGgK5FUbpkg",
        "state": "gym",
        "coords": {
            "longitude": 2.286038,
            "latitude": 49.892663
        },
        "name": "En Hommage \u00c0 De Lattre De Tassigny, Amiens"
    },
    {
        "image": "http:\/\/lh5.ggpht.com\/qd2_AKAZCi013rf4BdBEBESpHJzioXqaKF6FaQl8cx5PeDEHSC9T3c6WGs1EXQHK5RlHClS-hNOgpUe-v1RJ",
        "state": "pokestop",
        "coords": {
            "longitude": 2.301746,
            "latitude": 49.88765
        },
        "name": "Fresque Jules Verne"
    },
    {
        "image": "",
        "state": "pokestop",
        "coords": {
            "longitude": 2.31082,
            "latitude": 49.898892
        },
        "name": "Cath\u00e9drale d'Amiens"
    },
    {
        "image": "http:\/\/lh3.googleusercontent.com\/3qsBJEwDYIMz2OKPwDpqGM4AejTz3MlZ-4AXmacGE-oEenN85bLRoS-z4VLomXf13V-lDEby-h4cxunSLJ2j",
        "state": "pokestop",
        "coords": {
            "longitude": 2.303544,
            "latitude": 49.898643
        },
        "name": "Attractions Enfantines De Saint Leu"
    },
    {
        "image": "http:\/\/lh6.ggpht.com\/SL1-PG7qkHwBscluE7OXUOZupg75IUvx8uZoKRenh3me-_IYXj4xc1BiFPoJZTFyaGKUbBoPjylGAKkjlVEe",
        "state": "gym",
        "coords": {
            "longitude": 2.291922,
            "latitude": 49.908294
        },
        "name": "Chapelle de l'H\u00f4pital Nord,  Amiens"
    },
    {
        "image": "http:\/\/lh3.googleusercontent.com\/_mSk9K_uIeneTc_ZISfeiVpqtkANP8nBK9jiIv13wl8Od5BZW_m0DOv-npnaHmCJEuNqtMpsnjW6rR4G92_H",
        "state": "unconfirmed",
        "coords": {
            "longitude": 2.410509,
            "latitude": 49.879682
        },
        "name": "Ch\u00e2teau De Tronville"
    },
    {
        "image": "http:\/\/lh5.ggpht.com\/q79L_P1s5-JJDiYGfj8JiUKxLop4V_POTNPHslxPED0r6ca8QrxaKFVqg6NmEMSrgnEKXFvaQoV6-GtE_MNodA",
        "state": "unconfirmed",
        "coords": {
            "longitude": 2.25937,
            "latitude": 49.914769
        },
        "name": "Ch\u00e2teau De Monti\u00e8res"
    },
    {
        "image": "http:\/\/lh5.ggpht.com\/bMiver5exXMNBZrhgOTbMoaA7gjGU4ZoJuxMC4tTUM2duCcvvGptML0HAkldTkX64eYXMisRIvzlmG_IA1A",
        "state": "unconfirmed",
        "coords": {
            "longitude": 2.301484,
            "latitude": 49.893291
        },
        "name": "Chambre des Notaires 1854"
    },
    {
        "image": "http:\/\/lh3.googleusercontent.com\/gv5LY0ZzwJN8BLDphwX7WOwvbEhBz81RQdfcDTJvL7ZKtLPwxGltwk6o4jnQUKzCzBRYNDZbCX-YoxgnMIU",
        "state": "unconfirmed",
        "coords": {
            "longitude": 2.301325,
            "latitude": 49.895188
        },
        "name": "Office De Tourisme"
    },
    {
        "image": "http:\/\/lh3.googleusercontent.com\/s4ftlz9ayDlTHgJNT-t9QCCBXph2DTyAD0P_d-RkFMZennrJMcaJMNhnvjIyaGNj8V0xYyVYp9s36OHnAzA",
        "state": "pokestop",
        "coords": {
            "longitude": 2.309228,
            "latitude": 49.891968
        },
        "name": "Fresque De La Vall\u00e9e"
    },
    {
        "image": "http:\/\/lh5.ggpht.com\/EBLBu5V8iOIhdwBAB4gjPLfM4ucr4Z5m-JwGdFjC_i43p7lN0ygGi0k1-6NZWg-Y9yMHXFG_tcvYXcqAGNOeeg",
        "state": "unconfirmed",
        "coords": {
            "longitude": 2.329552,
            "latitude": 49.884937
        },
        "name": "Neuville Public Library Historical Plaque"
    },
    {
        "image": "http:\/\/lh3.ggpht.com\/u6S8xzb_OXRNxmd1FvDcaob6f6n4yWxDqg9grlT0DsefUBj8uulF882oWHmRnZVrFtOHRnJWeau6l0C6eUg83Q",
        "state": "unconfirmed",
        "coords": {
            "longitude": 2.22955,
            "latitude": 49.915968
        },
        "name": "Eglise De Dreuil"
    },
    {
        "image": "http:\/\/lh5.ggpht.com\/ZBAXo4VH3heMHqQNlodtBE6WFcQsbL8BM425tCRlpP-1kzK3gB8PQcUhcXVOdJIXsV5OSjYf6HD4F8pY8tsK-w",
        "state": "unconfirmed",
        "coords": {
            "longitude": 2.281111,
            "latitude": 49.889734
        },
        "name": "Plaques Comm\u00e9moratives"
    },
    {
        "image": "http:\/\/lh5.ggpht.com\/jbJCIJzxu_BgDkFjkCkyxNFae0XxZ7JptuuW1XaIsSeytaep4-bUVrouB6KBsZWpqO_Z32FJmIS9uNbuGw",
        "state": "pokestop",
        "coords": {
            "longitude": 2.328546,
            "latitude": 49.885825
        },
        "name": "Amiens Halt\u00e9rophilie"
    },
    {
        "image": "http:\/\/lh3.googleusercontent.com\/5d0B37g72J5iFMDjhSx2IhrFtIjyii89VX9yA8Zq_Epb1Ffd-kfA7EIx6tlZ9JnKcQpZjF0zrUdimzsrG75dLw",
        "state": "pokestop",
        "coords": {
            "longitude": 2.296758,
            "latitude": 49.893251
        },
        "name": "Maison Jean Trogneux"
    },
    {
        "image": "http:\/\/lh3.ggpht.com\/_Gw9CS8YhjyUEtbHO6pJI2i1QgT4LyvNzt-u7d5ugqv93uO2xR0APCrcR0K1GBp7gTnonKj3a7NYvNtUGRA",
        "state": "gym",
        "coords": {
            "longitude": 2.305888,
            "latitude": 49.903115
        },
        "name": "Eglise Saint Pierre"
    },
    {
        "image": "http:\/\/lh3.googleusercontent.com\/WmSYrtwxU74Eb9gJMqFAV_xxS-Q69Tr751vkl6VWyf1bsFrk2icWsjgEy6seQtlcyKG6BK-T1W5e1WKFXDTyig",
        "state": "pokestop",
        "coords": {
            "longitude": 2.313718,
            "latitude": 49.882146
        },
        "name": "La rose du 108"
    },
    {
        "image": "http:\/\/lh5.ggpht.com\/La1elMvgqaD245R3NcZ0oy4g7votUgEGs44rji8Jvfg5HGlEmrthMInA4nmw9YH69kasUNBRQVbqoa6MKp4",
        "state": "unconfirmed",
        "coords": {
            "longitude": 2.299472,
            "latitude": 49.891742
        },
        "name": "Sculpture Du Dessus De Le Teinturerie"
    },
    {
        "image": "http:\/\/lh3.googleusercontent.com\/ck_WancGxeS8_uPJtmKfSqc_PREkDQgrgkhUl8Roxb4pjP3tW_BCut9_zbVKs6LFY66gatcTVN5-elV6tU32",
        "state": "pokestop",
        "coords": {
            "longitude": 2.326206,
            "latitude": 49.884014
        },
        "name": "Plaque 1894"
    },
    {
        "image": "http:\/\/lh4.ggpht.com\/u7Q1ZlYTTM1dzXnJRTnMjUncFoQLKtiJNejFcYCQnPfr4-OGNarZuICySiwRulLJ9yREpjfywfO4CsuUkL_gow",
        "state": "pokestop",
        "coords": {
            "longitude": 2.296556,
            "latitude": 49.890571
        },
        "name": "H\u00f4tel du Pr\u00e9fet"
    },
    {
        "image": "http:\/\/lh3.googleusercontent.com\/914JgBIE7wwbI-3v8583YonJoBMvIuCns2Y0c_8L9uLRsyv9x5WCDKZ4uV5EUgbhCaNxjTZHS_wR9MpJPfQO",
        "state": "pokestop",
        "coords": {
            "longitude": 2.329236,
            "latitude": 49.878845
        },
        "name": "Tour D'observation"
    },
    {
        "image": "http:\/\/lh4.ggpht.com\/E4fiwBBNByJ5lfvdVzzDIxK-EleVF7MskMWdR-jqR7YCdepOYoRDYmaQghJ2fmy270wgsu7fdrG--Zcr-y_P",
        "state": "unconfirmed",
        "coords": {
            "longitude": 2.297352,
            "latitude": 49.875774
        },
        "name": "Promethus And The Flame"
    },
    {
        "image": "http:\/\/lh3.googleusercontent.com\/IewAIfzl4xXWiYKpzQoV7AfMZ_tQ3Q94WZj755_4dckHAUBGrAqTtIu44mF2_l594-fCLRZjVqoSf4dkYZTw",
        "state": "unconfirmed",
        "coords": {
            "longitude": 2.27324,
            "latitude": 49.857383
        },
        "name": "Bouctot vagniez"
    },
    {
        "image": "http:\/\/lh3.googleusercontent.com\/2-5Kavk36RkWzoHz3QnixOPazl5km-4Skj6TYpYTRIBHoH79_MRvpJ66DkUTqiLBsqGEasx6G0dH30jintvQ",
        "state": "pokestop",
        "coords": {
            "longitude": 2.304883,
            "latitude": 49.880783
        },
        "name": "Gargouilles"
    },
    {
        "image": "http:\/\/lh4.ggpht.com\/6HYscaHDeewQgxHwMjutOCo35fsv5r_pdjFfmeQagKq-Bt00TMh_ObXO-THCdqe2Nkba7etiQ2MmSWGxD3O1",
        "state": "gym",
        "coords": {
            "longitude": 2.316606,
            "latitude": 49.910535
        },
        "name": "132 Ans D'histoire"
    },
    {
        "image": "http:\/\/lh3.googleusercontent.com\/AjUW1NLaqPFB81vJde8x-O4Vu6W_TsEA2asRsvPwmbLIxACnG2dgkfsBDWRMjm0vOVFLLUEJsPu8miBnUcK9",
        "state": "pokestop",
        "coords": {
            "longitude": 2.313268,
            "latitude": 49.892742
        },
        "name": "Parc Urbain"
    },
    {
        "image": "http:\/\/lh5.ggpht.com\/9u0Sfyh-Q4BnaBC2YZ5v_TUMAQqQg2hYjJF1_LwOyePf0FDW6bsGsK8wbEp9DgR0uECPKXXPUuRWoOlnVZKqrg",
        "state": "unconfirmed",
        "coords": {
            "longitude": 2.317925,
            "latitude": 49.878012
        },
        "name": "Plaque FFI"
    },
    {
        "image": "http:\/\/lh6.ggpht.com\/Pc6y2vhL9RKdHDgesiEvk0HdIHWa97_rNegX3kZRIyIcAF3KOQw8AFhnaApij8SJuvec0VlBPzOroFPCpPw",
        "state": "gym",
        "coords": {
            "longitude": 2.262207,
            "latitude": 49.91999
        },
        "name": "Don't Do Eat"
    },
    {
        "image": "http:\/\/lh3.googleusercontent.com\/ZeRLv6tPjlpYEHheSX24DLnPaZVoE7RiVK9rLzpc3J2T7ndO6du_a7Tbs1BeaTmRa54Pf1ilH3wEgMb9G4sv",
        "state": "pokestop",
        "coords": {
            "longitude": 2.274953,
            "latitude": 49.89986
        },
        "name": "Dancing du Pavillon Bleu"
    },
    {
        "image": "http:\/\/lh4.ggpht.com\/30_dq6QVfe5MTEJ3AwOlMGTeyga2-XMVxLDF48AjWHKTxVVZSL1e8rfskp__xjSvwq4ikxiniqI3bBvrnvw",
        "state": "pokestop",
        "coords": {
            "longitude": 2.297944,
            "latitude": 49.89232
        },
        "name": "Vieille Fa\u00e7ade Sur Batiment R\u00e9nov\u00e9"
    },
    {
        "image": "http:\/\/lh3.googleusercontent.com\/B8ELgl-SBFIVi_JR5OgoKdD55CbFN3oPJVL7yfHRuUEbw5sO6HnCyjukl7DFe1Az4mS05e7lsx1OdAOtmrSI",
        "state": "unconfirmed",
        "coords": {
            "longitude": 2.279156,
            "latitude": 49.891794
        },
        "name": "Dojo Regional \/ Maison Des Sports"
    },
    {
        "image": "http:\/\/lh5.ggpht.com\/kS0UcwjH4ldx673dpqWIa-82iwZVxzL1cOypdEclxO5jA5V_xVQ0EjPTjTBXwcdGEKy5ZmpflG3qhjkhDDSW_Q",
        "state": "pokestop",
        "coords": {
            "longitude": 2.305668,
            "latitude": 49.89067
        },
        "name": "Th\u00e9\u00e2tre Imaginaire"
    },
    {
        "image": "http:\/\/lh3.googleusercontent.com\/QysBrXWV08g7ICeEwvWGWnZHMcyBuPDuj8sJzreovaWFGzEJPKUuJ5ZUDuwgR2WmcY8mMhw4xm6IdxGbwAU2",
        "state": "pokestop",
        "coords": {
            "longitude": 2.273623,
            "latitude": 49.898683
        },
        "name": "Aire de jeux - Amiens"
    },
    {
        "image": "http:\/\/lh4.ggpht.com\/dQyj8uMxUcCSEMzPtRBAm2PgIAzanw_I9lD0AJCLdttskoqz9KAtRRMUjrJdUzGauO93AkDwp7E-SQjLQ7zi",
        "state": "pokestop",
        "coords": {
            "longitude": 2.339692,
            "latitude": 49.877402
        },
        "name": "Marais des Trois Vaches"
    },
    {
        "image": "http:\/\/lh4.ggpht.com\/ufFyS0smEhQvd7v8-lrNzPqbQ7m6xJoPLXkndmOdL9fR0jP_UdvwvQTQP4qowx3Orz2VMM7bqESO29jMpaTZ6Q",
        "state": "pokestop",
        "coords": {
            "longitude": 2.300844,
            "latitude": 49.894503
        },
        "name": "Fa\u00e7ade des Trois Maillets"
    },
    {
        "image": "http:\/\/lh3.googleusercontent.com\/ZcJefHd2yejs8QbB2S_rPEUCegNvgqYjIhbRT89W4LDcgHq-Aji5YJlwu_r9ESXF0BG2WYI3DJevQwa_DBBp",
        "state": "pokestop",
        "coords": {
            "longitude": 2.279868,
            "latitude": 49.871173
        },
        "name": "Ancienne Entr\u00e9e du Gardien"
    },
    {
        "image": "http:\/\/lh3.ggpht.com\/O6m5yM6vC-WUwX3LwlrGDrmVJvE1vJJ7tqi_Hvs7B5OREUaS82wfHX_BBhaGwJFxnj4I7Z_7iunULva8DzgR",
        "state": "pokestop",
        "coords": {
            "longitude": 2.296691,
            "latitude": 49.901032
        },
        "name": "Serre Napoleon III"
    },
    {
        "image": "http:\/\/lh4.ggpht.com\/hzO3yw93YS_7FNBnwDdoMkqwe_ovaXMeljEqEXCzKzmrvxdJxKuhOFyYBJHiMm5zXv1R9bquKL8EqVBv_Hw2",
        "state": "pokestop",
        "coords": {
            "longitude": 2.302087,
            "latitude": 49.895274
        },
        "name": "Jardin M\u00e9di\u00e9val Amiens"
    },
    {
        "image": "http:\/\/lh5.ggpht.com\/fs8vsEV8CEgapo-diuQnmKkqLJP2gI9iv3yN4RwLj2Avk94jUFD8BHpO5LgYvPMwtBLJjKt1xsZaUbrSdyBj",
        "state": "pokestop",
        "coords": {
            "longitude": 2.295028,
            "latitude": 49.888083
        },
        "name": "Statue - Square Arlette Gruss Amiens"
    },
    {
        "image": "http:\/\/lh6.ggpht.com\/nDZk5NEH7635jI-ph89c34SZLoLaZMhgQD2SOnWwXOxSNMghc1y-lLtI90Tyqg0SKcqbHMwZZUmaV_5dJ4r2kw",
        "state": "pokestop",
        "coords": {
            "longitude": 2.285501,
            "latitude": 49.870275
        },
        "name": "Totem"
    },
    {
        "image": "http:\/\/lh5.ggpht.com\/W2l9wu4iktVCeVtNYPXqgyC5FsXeo4ni6SLd-Zl6o_DC2veuI048c7WfHHCLfOUtpx09VKJb9UOQAma8iNBqzA",
        "state": "pokestop",
        "coords": {
            "longitude": 2.290816,
            "latitude": 49.891602
        },
        "name": "Statue Des Beaux Arts"
    },
    {
        "image": "http:\/\/lh4.ggpht.com\/FL5gS0P28nQrU6ECdW6vC8oNvz-EVn08U5X_XMaXFQ3j2I-920GR_y_c21q4AzL-D6eImb8dlPasItnGM60H",
        "state": "pokestop",
        "coords": {
            "longitude": 2.300585,
            "latitude": 49.887977
        },
        "name": "Plaque Jules Verne, Amiens"
    },
    {
        "image": "http:\/\/lh5.ggpht.com\/wAyptnCA_ENYdKli8vauPQJADM3jhDHwGtTU_2uT9BG-snghgX1oKqDgROga5vApLPDAkY-7gRlXDzerCn_J",
        "state": "unconfirmed",
        "coords": {
            "longitude": 2.341377,
            "latitude": 49.856818
        },
        "name": "Panneau indicatif de La Garenne - Tro\u00e8ne"
    },
    {
        "image": "http:\/\/lh4.ggpht.com\/MdV5Fs7JGJ77yhQ6Q0Gu-FuzpXLPJ04sdOdb6xrfDroxIbYBiMHLdGnxPYsADtYy3dZoS9jEwNTcfnErGwp2",
        "state": "pokestop",
        "coords": {
            "longitude": 2.306301,
            "latitude": 49.885903
        },
        "name": "notre dame des anges"
    },
    {
        "image": "http:\/\/lh5.ggpht.com\/UO73Wc-58ESeea1vtNxnX-1eRx7_zmAQUrsUtKYpz3lFWDTmo8mjanu40thKcWE5edJHlnz0wLUNmfcG9QUT-g",
        "state": "unconfirmed",
        "coords": {
            "longitude": 2.339553,
            "latitude": 49.857248
        },
        "name": "Panneau indicatif de La Garenne  Sureau"
    },
    {
        "image": "http:\/\/lh3.googleusercontent.com\/_wovAKmTpgGHm2FOpnDyFuEuvK8ddPeOuULH4tn6DaxBdwI3dB44Ms4EqNxyCrVKHYB5UOHFJrVPmPXc5uM",
        "state": "pokestop",
        "coords": {
            "longitude": 2.309788,
            "latitude": 49.894991
        },
        "name": "Blason de Beauvill\u00e9"
    },
    {
        "image": "http:\/\/lh3.googleusercontent.com\/3t6Fz5sawx03RXYJW487_JRaqkyXg1tVG5rNWhzdD0gFwGj5Os8YZ2RslNzMEqbJ5UqniOtdNcVsE2LHQrB3",
        "state": "unconfirmed",
        "coords": {
            "longitude": 2.275258,
            "latitude": 49.871838
        },
        "name": "Sculpture Murale 1890"
    },
    {
        "image": "http:\/\/lh3.ggpht.com\/0EFKv2qHwbJ8CwY81-wpxdms_dJlA4_ARJxb3DgMfKnAr9mwEgJG3dXtmTFN5h4vmlFle2-ibfGkscV4A1wEVZy4zz3kd5OB3aAruVgkOhsQ24_L",
        "state": "pokestop",
        "coords": {
            "longitude": 2.302009,
            "latitude": 49.892495
        },
        "name": "Cour d'appel"
    },
    {
        "image": "http:\/\/lh4.ggpht.com\/PmSewqgFQSwsAgPl1DpX5HYQ311RofqIrJMu856uFlcw0WB3_zNDk6vUy7hqjbdZsmx33IDp-zKwlxpC48GC",
        "state": "unconfirmed",
        "coords": {
            "longitude": 2.244983,
            "latitude": 49.869504
        },
        "name": "Eglise De Salouel"
    },
    {
        "image": "http:\/\/lh4.ggpht.com\/FyYxp6nBcECOIHkfSeGyRfvfuTtqFp-NPyX9vWlLomHi--Va0odWBXD7M_0lhr_Ksaa96gF5En9GaA9984fD",
        "state": "pokestop",
        "coords": {
            "longitude": 2.297164,
            "latitude": 49.889463
        },
        "name": "L'aigle imp\u00e9rial"
    },
    {
        "image": "http:\/\/lh6.ggpht.com\/_AQq-8wW_UxxL4tPeXS2NB1utErUfz42nRpapOfEXfeGxdC4cWKkziX_lH-PgRr3mFq3ecG2JC_z6ooLPSVKjA",
        "state": "gym",
        "coords": {
            "longitude": 2.37875,
            "latitude": 49.868113
        },
        "name": "Ch\u00e2teau D'eau Du P\u00f4le Jules Verne"
    },
    {
        "image": "http:\/\/lh3.ggpht.com\/5I4JdP9ndXHHE3K2z1qJmNN8B2zHWSX5oM-aYepcr02Noxso1iafVtYTn7Py73vwqdZj95OFshEHylDV_ihHHKtbG6xBP5Hh00XDvl0S0CjirXj2",
        "state": "pokestop",
        "coords": {
            "longitude": 2.311894,
            "latitude": 49.888511
        },
        "name": "Caserne De Jean, Amiens"
    },
    {
        "image": "http:\/\/lh4.ggpht.com\/nbrOXZBc1ZH7nlglrTNOxlcb8gGT6Neu67pUUua4UAOO5UD4zzOCWN6rMOEVJxAvAL_jh1NfO4D8ObQFvrQ",
        "state": "pokestop",
        "coords": {
            "longitude": 2.302267,
            "latitude": 49.892097
        },
        "name": "Le Porche Au Loup"
    },
    {
        "image": "http:\/\/lh6.ggpht.com\/X3TXPWX1eWnJjVP-2tIJOnIIxVTEiSKi-HK2FnogpNuqTwqYOsSxQxf67mN5G_3zKCfRw6iBV5VWPfpkUjc9",
        "state": "pokestop",
        "coords": {
            "longitude": 2.290098,
            "latitude": 49.892283
        },
        "name": "Statue Lhomond"
    },
    {
        "image": "http:\/\/lh3.googleusercontent.com\/pY3qBSOR0qixRFkNOBQMtqv9vt6VcG3X6DR6jL51c9iHIbcHO45KhBdD14RnEKma8bCI6CaZ9ZSK2xn_WPTZ",
        "state": "pokestop",
        "coords": {
            "longitude": 2.305799,
            "latitude": 49.897131
        },
        "name": "Gall\u00e9rie Des Antiquaires"
    },
    {
        "image": "http:\/\/lh3.ggpht.com\/zH21AJ2gAmQvI-sFae7oLA9JIActi1DZI1aaXZlXORYgqzAkIawpeYTjGemglCzdORc0VZg8owjU8zMuXkiJ",
        "state": "pokestop",
        "coords": {
            "longitude": 2.300007,
            "latitude": 49.894407
        },
        "name": "Ch\u00e9rubins Peints"
    },
    {
        "image": "http:\/\/lh3.googleusercontent.com\/82-BboGUIII1gU4U4eQIVyx_-p2beek3-tywsN5Ewh3eJHLdWjC8xWboSVLj-UnSI7MG2YXSvGhvbiQX2WqB",
        "state": "unconfirmed",
        "coords": {
            "longitude": 2.3487,
            "latitude": 49.884089
        },
        "name": "L es Ports \u00c0 Fumiers"
    },
    {
        "image": "http:\/\/lh5.ggpht.com\/96mFGAI_fW5yYEYQNvXYb5ES-jzOmzmDsV7pnUXj3ziEupT1aD1BR0sm0k67wbSzbOT4Dbdy_UKzEkNr2dmK",
        "state": "pokestop",
        "coords": {
            "longitude": 2.290523,
            "latitude": 49.890705
        },
        "name": "Historic \\\"Double B\\\" House"
    },
    {
        "image": "http:\/\/lh6.ggpht.com\/mP0ddRmoCN9gbbgZj1wg3F61zlMICndqC0heJYmTo8wENSk_0a_SrnV0ihYCmOnldQz7-sWMl4ZI_vG-c5I",
        "state": "pokestop",
        "coords": {
            "longitude": 2.288232,
            "latitude": 49.90358
        },
        "name": "Saint Maurice Church"
    },
    {
        "image": "http:\/\/lh5.ggpht.com\/gBA6-K2WZlkbFbiP3zv7-QngneyEbZLRKbajLxRvWnF65iZTacdlsA2ry_ttMdcYikQkJwBjNmQ3wbRcYdA",
        "state": "gym",
        "coords": {
            "longitude": 2.318522,
            "latitude": 49.894074
        },
        "name": "Les Passerelles"
    },
    {
        "image": "http:\/\/lh3.ggpht.com\/oxECAHbOBRJXgHvWFP_JmWKNCwwWl35sCsoGpQA11jaRVLCLLgxWDb2f46fPaGaGNr2hd8w81h0GaJVqxH0",
        "state": "gym",
        "coords": {
            "longitude": 2.256765,
            "latitude": 49.917881
        },
        "name": "Morts Pour Monti\u00e8res"
    },
    {
        "image": "http:\/\/lh3.googleusercontent.com\/T1zrOOg4kTeo7Hu3nJJNqjMhqXLPPatvvaTG2qT7PUuv20ng_-2Ce6ZqLjCR39vOND-IE3D2xfEjRQ67uXbW",
        "state": "pokestop",
        "coords": {
            "longitude": 2.313949,
            "latitude": 49.892542
        },
        "name": "Jeu d'eau"
    },
    {
        "image": "http:\/\/lh3.ggpht.com\/kG75zXHZ0jBQcnXTMsLu6c36MG8-ZTwH6OyDMFrFAfpBLquDCRzo7r_GOBiMrcZ13inzOsI3DiuxsFmNgM_k0A",
        "state": "pokestop",
        "coords": {
            "longitude": 2.291221,
            "latitude": 49.89175
        },
        "name": "Conservatoire et Auditorium"
    },
    {
        "image": "http:\/\/lh3.ggpht.com\/zjU3vNvVrbraXxOTKU9DikfX4O0FR_GX4Oj9YDHES4p9JDOIcl6PjykFMIhzsc1U725Frn_yJSPljuMdAd4",
        "state": "pokestop",
        "coords": {
            "longitude": 2.296247,
            "latitude": 49.896422
        },
        "name": "L'\u00e9glise Saint Germain L'\u00c9cossais"
    },
    {
        "image": "http:\/\/lh5.ggpht.com\/w-Z7HsMYfOorKWrTfWXfmJxolWvMFH7R79r06cdEtd8F42mXpj9hShG4d2XsjR56ryst1yTUYeGU8LKHIDgyVA",
        "state": "pokestop",
        "coords": {
            "longitude": 2.262029,
            "latitude": 49.883884
        },
        "name": "a la m\u00e9moire des combattants du 7\u00e8me bataillon du r\u00e9giment royal du sussex qui resist\u00e8rent \u00e0 l'offensive allemande du 18 au 20 mai 1940"
    },
    {
        "image": "http:\/\/lh3.googleusercontent.com\/Nino_E2w0hzNQliX6isOx98SaAcvIXuvC1A9tjkaMrxl3I4oBmiheK5R4tl93Zq3_AMBa17iuf875pTWTmc",
        "state": "unconfirmed",
        "coords": {
            "longitude": 2.296884,
            "latitude": 49.900762
        },
        "name": "Le Cornouiller, Jardin Des Plantes"
    },
    {
        "image": "http:\/\/lh3.googleusercontent.com\/SpeypNfyalXqKh-y_FzQUQmeqmfWSD0FAzAQOLWa1RGvQD07OqPea078-A9UpiwmPnY67fh8STWhSLfuiqIl",
        "state": "pokestop",
        "coords": {
            "longitude": 2.282023,
            "latitude": 49.897503
        },
        "name": "Le kiosque de la Hotoie"
    },
    {
        "image": "http:\/\/lh3.ggpht.com\/qDBPKWsfV0BUIonAy6Zke1lsBR6KBoe9oaROmW6VgtsJHYm2INFjY0jM9hXF9uyNWrN4ibMAPgKSpCMi2LeB",
        "state": "pokestop",
        "coords": {
            "longitude": 2.326631,
            "latitude": 49.877974
        },
        "name": "Biblioth\u00e9que Le Petit Prince"
    },
    {
        "image": "http:\/\/lh3.ggpht.com\/4RGPXaCOMCKoRTOQ0bxqB-bl4l3vrxu6a8Y3HoY5_8J5PlkJbhDg9uoiHoAiwHRdAHCbdcnvLkGlkoIwMroQ1w",
        "state": "pokestop",
        "coords": {
            "longitude": 2.28713,
            "latitude": 49.895075
        },
        "name": "Parc De Jeux Du Coliseum"
    },
    {
        "image": "http:\/\/lh4.ggpht.com\/1OrHtCQ4zbcJx3SrL9T1lH0-5Km_3PbtgWjPSPzh25XSPOTQ1LQ8JRLfuKwfic7PQMTpBS38Ag5WHJXFf0g",
        "state": "unconfirmed",
        "coords": {
            "longitude": 2.296429,
            "latitude": 49.900284
        },
        "name": "Sculpture Sur Bois, Jardin Des Plantes - Amiens"
    },
    {
        "image": "http:\/\/lh4.ggpht.com\/3ee27MS4un8T-d_7hbuCJA6E_lTHh4pkRo7f5YRcd4TL8aRv2Ovxf3ICBxS5Ak2fg3QSXEt2J-9wxXufvBg",
        "state": "pokestop",
        "coords": {
            "longitude": 2.303505,
            "latitude": 49.892428
        },
        "name": "Plaque"
    },
    {
        "image": "http:\/\/lh4.ggpht.com\/pe_tz1q7cVvUfJm4HFE3yG5Q-aeeD-Nwsnf1S9DQQ1T8T7UCVmeaqM0Khis2U7b4GV-pgSU1_NCOxoK7flPVYQ",
        "state": "pokestop",
        "coords": {
            "longitude": 2.305662,
            "latitude": 49.893035
        },
        "name": "\u00c9glise"
    },
    {
        "image": "http:\/\/lh6.ggpht.com\/fJFBGQ4FCvkbqxB4aj5cfZ48Nlp9qnaSppbv_8b-E1TI4jcyUy6J1NJBzDMN5b20PV7BOcg_bmHSeqejLJPExg",
        "state": "unconfirmed",
        "coords": {
            "longitude": 2.282531,
            "latitude": 49.900537
        },
        "name": "Statue"
    },
    {
        "image": "http:\/\/lh3.googleusercontent.com\/uMy0ADPypW6friSsKlZwU_YigEdhCvtd1gMJCKZQCWcV-Zw_5FjZgHo3IBnEbqhICYRDp4r-hKWr6fp-iLsL",
        "state": "unconfirmed",
        "coords": {
            "longitude": 2.399438,
            "latitude": 49.878667
        },
        "name": "Aux Victimes De La Barbarie Nazie - Glisy"
    },
    {
        "image": "http:\/\/lh3.googleusercontent.com\/X1eVsqXOVU3nHdoiRxFzAaOBSSgNiPro1_4faUprCxG4NzHbDO-SvYpUlZs4H58lJFLpqL_bIbcrgWtjxM5Ngw",
        "state": "unconfirmed",
        "coords": {
            "longitude": 2.307244,
            "latitude": 49.889909
        },
        "name": "SpongeBob"
    },
    {
        "image": "http:\/\/lh3.googleusercontent.com\/iDz_UVIDkuK6JyJdql_fNeDEYc7VK51-goW0M67vAogrjQZDyzprLVa9xBciUNG2pKYUry6lxRsdf50RT66h",
        "state": "unconfirmed",
        "coords": {
            "longitude": 2.301861,
            "latitude": 49.887909
        },
        "name": "Maison Jules VERNE"
    },
    {
        "image": "http:\/\/lh3.googleusercontent.com\/tLWoJQ88zTaKddAodV-Iy_gX53s5VoLcTUk9PLqW9uAo3BRHiZ1O1DCW3KPQVIykkFEdeH6fScI9Am7qxw",
        "state": "pokestop",
        "coords": {
            "longitude": 2.301709,
            "latitude": 49.896829
        },
        "name": "Th\u00e9\u00e2tre De Marionnettes Ch\u00e8s Cabotans"
    },
    {
        "image": "http:\/\/lh5.ggpht.com\/8uyJlzMs8qe59khLBfWOTRhvMWVnxfKEIunC_ohGPaQsar-_985mKqzrAvi6KnbvMOiq_bZ1KCSbFbh6JS8",
        "state": "pokestop",
        "coords": {
            "longitude": 2.357319,
            "latitude": 49.870141
        },
        "name": "H\u00f4tel de Ville De Longueau"
    },
    {
        "image": "http:\/\/lh3.ggpht.com\/mkxpY_6pRRUJn-nz2VV0SckwiGz1jCqJ2Wf09CxG_1XV4tIqAFuCqQ-MLDjXRrw2GDSVBOkLx3EbT3EgfCDe",
        "state": "gym",
        "coords": {
            "longitude": 2.306322,
            "latitude": 49.891044
        },
        "name": "Tour Perret"
    },
    {
        "image": "http:\/\/lh6.ggpht.com\/VcPJXc3tFrG_JUWez_PFfY4zWoTplMYhND3pr7lpmFgCe6ar2QihU77gxWcvv6SKokfkbCEOdUOKytFIi4Ho1A",
        "state": "pokestop",
        "coords": {
            "longitude": 2.300418,
            "latitude": 49.898706
        },
        "name": "Amiens - Ancienne Chapelle"
    },
    {
        "image": "http:\/\/lh6.ggpht.com\/u1KeW18cIOAzl0EioGIp46Fx4JS7jFFiWEkKHMO16Y1aiciO9a3FOgggwGlpztgWPAYGiKs2kaZshxgT7i0W",
        "state": "gym",
        "coords": {
            "longitude": 2.280706,
            "latitude": 49.870645
        },
        "name": "Entr\u00e9e De La Vall\u00e9e Des Vignes"
    },
    {
        "image": "http:\/\/lh4.ggpht.com\/mOiwKhwUrxc7uJ3cS7m7d_awdQ7ZSWw7yrUmN2bMV1grWbSbp_jesXHbJLJ-F5NNUNPJbTBpYSBMHFUtmN-_",
        "state": "unconfirmed",
        "coords": {
            "longitude": 2.324966,
            "latitude": 49.911328
        },
        "name": "Statue Femme Qui Danse"
    },
    {
        "image": "http:\/\/lh3.ggpht.com\/IRplGZR1YHuTGbk1mY-OEI_ilA3rbp8FFsrcRlHVhgJmVNTJ7zCV8PpCNTB-5NJF6st1oK7-5f_ccmJnFpE",
        "state": "pokestop",
        "coords": {
            "longitude": 2.303849,
            "latitude": 49.891179
        },
        "name": "Aux Martyrs De La R\u00e9sistance"
    },
    {
        "image": "http:\/\/lh6.ggpht.com\/GlklQ0BN_i9IksZc_dTjoLaNAWwGDEurOWSFnMyN_ZhW8oAZPFGH3gcSqFmKe4BZ_foCCfb0fGLEVp7wcN4",
        "state": "pokestop",
        "coords": {
            "longitude": 2.285688,
            "latitude": 49.914386
        },
        "name": "Jules Barni, 1818-1878"
    },
    {
        "image": "http:\/\/lh6.ggpht.com\/PjO45vdGf88R6CqZjfu_7W6p47cKrKRW32sm03a-S3cMAmCvasH0TgAs5VCl5qnCKErpPUu3K-nxVrqzsYuhDg",
        "state": "pokestop",
        "coords": {
            "longitude": 2.291976,
            "latitude": 49.888592
        },
        "name": "H\u00f4tel Particulier Historique"
    },
    {
        "image": "http:\/\/lh3.googleusercontent.com\/1XKb1PXdDc0ZldP8yP7N8v37Qs1h1ToeNJTl1MyrzU3L00PO_o3JVv6SdcXXGL36zLvcl0W8VZw6OagA2NAE",
        "state": "gym",
        "coords": {
            "longitude": 2.321693,
            "latitude": 49.910212
        },
        "name": "Stade G\u00e9rard Totet"
    },
    {
        "image": "http:\/\/lh3.googleusercontent.com\/ttk-xg08goNtqwElomgZFgbTqktFDOTZriYvS9KV041upCTVOzrHNgj4DQ9xhRD2-OteDUiP8EUFSAEoUpt2",
        "state": "pokestop",
        "coords": {
            "longitude": 2.274593,
            "latitude": 49.893066
        },
        "name": "Le BMB"
    },
    {
        "image": "http:\/\/lh3.googleusercontent.com\/KgkfyPmGnKgxsxurCVCItL30eSoK9hJqQsXUDAlFyYUTyPJy4ySD_pqggNK63NqJ9LL2MmkUHoqXQYCEdND48w",
        "state": "gym",
        "coords": {
            "longitude": 2.309888,
            "latitude": 49.923656
        },
        "name": "Libellule Photographique"
    },
    {
        "image": "http:\/\/lh6.ggpht.com\/iqKjIPznKpRPP1NArzPqawvdwdtPVNB8ZCEdWHOPIeF6oAQFC6vTmgjFLeSxC-rkOHrOOhHgr9ggaviTUgI",
        "state": "pokestop",
        "coords": {
            "longitude": 2.307828,
            "latitude": 49.889653
        },
        "name": "Croix De La Sainte Famille"
    },
    {
        "image": "http:\/\/lh4.ggpht.com\/mayhocDfzEpOy0nkeUqwED7MSsVObe5b3ZStuxLMlZelXh9djb4Rfm140U_8qzgynj03z4dBRX3AGNl3zmhn",
        "state": "gym",
        "coords": {
            "longitude": 2.295902,
            "latitude": 49.890374
        },
        "name": "Mus\u00e9e de Picardie"
    },
    {
        "image": "http:\/\/lh6.ggpht.com\/v0dGIyws9nRnG7Z4kgQJjXjuG4KsNoa-FhSpqSOypBFh4dSU_Vr3A-z47_YzWS7ZZlwlNKu5DCo6Ib6F-MsTNmAe4MKymBAeLoQcmlqec5Urh88",
        "state": "unconfirmed",
        "coords": {
            "longitude": 2.30347,
            "latitude": 49.896307
        },
        "name": "Ob\u00e9lisque Jules Verne"
    },
    {
        "image": "http:\/\/lh3.googleusercontent.com\/JCna7OU5aicujqXc8mAiO4SoxIvkvvp8uBD07Cha2uaJdAJ4e7RYdBxfetfZqoIv2Mz3BY25llNoisKqWGEd",
        "state": "gym",
        "coords": {
            "longitude": 2.275408,
            "latitude": 49.878893
        },
        "name": "Terrain Jeux De Ballon"
    },
    {
        "image": "http:\/\/lh5.ggpht.com\/J2kvsJ62nG10-DoxZVQb2Jk5VCXZbSnQPv1aAoUC7nGmfDaX7L0oiJu9_R2JhFrfsITivI-nAYZktrBw7He8",
        "state": "pokestop",
        "coords": {
            "longitude": 2.28969,
            "latitude": 49.89301
        },
        "name": "Fresque de la Ferme"
    },
    {
        "image": "http:\/\/lh4.ggpht.com\/G5eAwzOiUZXZTbpHLibFcAgH-vqBZfV8BVXfqVQV7C3oaIMSHqNH2dKFiTFToZwtPif4dIB_XX2eluk1EN4",
        "state": "unconfirmed",
        "coords": {
            "longitude": 2.390539,
            "latitude": 49.845436
        },
        "name": "Mairie De Boves"
    },
    {
        "image": "http:\/\/lh6.ggpht.com\/BQPhwEUi89JvTC9GN4ryxXZP0XdZqx8FuEKQvR9MeF_MJNTC85QbCJSslXRP0e1uX1hKv5Q0rLAXQTY2gtUw",
        "state": "pokestop",
        "coords": {
            "longitude": 2.300441,
            "latitude": 49.911561
        },
        "name": "L'aquarium"
    },
    {
        "image": "http:\/\/lh4.ggpht.com\/ob_ubDfWr7It0lzUJ5q44qpwuM7IaKQN_PW67p312q3PopDZFSsmP2L4mB1rTWUv4sZejLS6kqS5zm8nWaqb",
        "state": "unconfirmed",
        "coords": {
            "longitude": 2.295955,
            "latitude": 49.894364
        },
        "name": "Inscription 'La Paix d'Amiens'"
    },
    {
        "image": "http:\/\/lh4.ggpht.com\/FCfTV3pUZatfP6SfzPJipFA_cnA9vJVdmk725kcI3kvq9cR8IwuOLYfW09FuvyaTdw-0Q66hXYdbc8t09FlQ",
        "state": "pokestop",
        "coords": {
            "longitude": 2.298909,
            "latitude": 49.894683
        },
        "name": "Le Crocodile"
    },
    {
        "image": "http:\/\/lh3.googleusercontent.com\/sMsE56H4AAuuxdMUAl-lUsZqfb7-PQn2bWhI3NdQmdSjjNyRWYnqW_30rYCbc6GJ12RIkMtObG0qGM_va-zR",
        "state": "pokestop",
        "coords": {
            "longitude": 2.31101,
            "latitude": 49.89133
        },
        "name": "Les Cubes Rouges"
    },
    {
        "image": "http:\/\/lh5.ggpht.com\/7kYBvXVg-OHyWiTpPgO_do_PSMH9psPstT7LTMMzbxkAhq3qofMKUKZHTL_KAC7LWX8FeUmNIt77dQYTjU9RBg",
        "state": "pokestop",
        "coords": {
            "longitude": 2.295387,
            "latitude": 49.897613
        },
        "name": "Place Vogel"
    },
    {
        "image": "http:\/\/lh3.ggpht.com\/xk7bBkZ959BxuyiG6yd7qTvIb5DtECDLDjj8mE3fwRIzOyOEs4b2aDagFUXrpuGidzDl2g2jXru96kQmcM0",
        "state": "gym",
        "coords": {
            "longitude": 2.337182,
            "latitude": 49.892379
        },
        "name": "Borne Des Couleurs Des Hortillonnages"
    },
    {
        "image": "http:\/\/lh4.ggpht.com\/xMMQktDESXwOzJuXlC9dUc46lBUCGqKnaJvtvH78l2uaw1hf1W963bhvGTifdsyhAA_ixmzXeIAuVP4c464",
        "state": "pokestop",
        "coords": {
            "longitude": 2.294729,
            "latitude": 49.884311
        },
        "name": "Restaurant D'application"
    },
    {
        "image": "http:\/\/lh3.ggpht.com\/PNQN-YayquQnkST1njO_jCQUFqHuDqiTh0RwKuM07PmjGVJAM0_y9N7U-ti4FjJ1R-esZhZS4e_9G3kLxWo",
        "state": "pokestop",
        "coords": {
            "longitude": 2.291263,
            "latitude": 49.894712
        },
        "name": "Les 3 Vierges"
    },
    {
        "image": "http:\/\/lh5.ggpht.com\/HXSWi2rvbeb-BvyxHVERr_TqVFeGMtc2VwvLAaRvFZdns87IM_7i8jBO1zXcmbZaF9pUcSfTQ2lL6T_VTqRVNg",
        "state": "pokestop",
        "coords": {
            "longitude": 2.29532,
            "latitude": 49.889127
        },
        "name": "Portrait d'Albert 1er, Roi des Belges, Amiens"
    },
    {
        "image": "http:\/\/lh3.googleusercontent.com\/Ju7AZ1RZqYMH1mMyEIyyU6JvoesZPyn3bUIf9NKqdPk4M7KFpsE_4V0L8-5FOPw-NAHHkQeLBMXcb37d6f8weA",
        "state": "unconfirmed",
        "coords": {
            "longitude": 2.272983,
            "latitude": 49.872251
        },
        "name": "Pavillon J. Raynier"
    },
    {
        "image": "http:\/\/lh5.ggpht.com\/u0sXrashSu4LMYN2PAdkdVwmra1WEF3sRF3FMwtuO10Cjy_YH-FDA_QQLBWnoSCAqky30bgWrSoA4es2X-jU",
        "state": "unconfirmed",
        "coords": {
            "longitude": 2.243634,
            "latitude": 49.881588
        },
        "name": "Mairie Pont De Metz"
    },
    {
        "image": "http:\/\/lh5.ggpht.com\/77WhRt-N83eOIn8xpy3aKa6XNRWsoz0w0LYfY6emm4X3JAGQdM2xtvWpu4OqLuT1dC4o_0hUwgHJAv8WvLaq",
        "state": "unconfirmed",
        "coords": {
            "longitude": 2.292414,
            "latitude": 49.895719
        },
        "name": "Fontaine Saint Jacques"
    },
    {
        "image": "http:\/\/lh4.ggpht.com\/VD_4hiHFaRGIIsn-DO5oZNOBPdUBhPtRZ4pmmiELoyKeZG5FwwysIdBOTtv0q23VTxF1CXK0CEaAfLi583kz",
        "state": "gym",
        "coords": {
            "longitude": 2.311124,
            "latitude": 49.896537
        },
        "name": "Amiens - Les Hortillonnages"
    },
    {
        "image": "http:\/\/lh6.ggpht.com\/jY4McUFYeeWWUq4LjfKZ3yzDowa2-W594qwHcb9X1fdNtw89O4DYN_vceWa0qKWxc-eRHn8hOEymSt4c5kqT",
        "state": "gym",
        "coords": {
            "longitude": 2.317219,
            "latitude": 49.877993
        },
        "name": "aux morts pour la patrie 1914\/1918"
    },
    {
        "image": "http:\/\/lh5.ggpht.com\/BPhstIZUirm_wNIlKl8wwTZOxr2dnusGfetO5P4XFMKRuEJxqegIR11s8IUXMjbCgJ9PNIYgA-qaehq7-i54Tz-9FyUHZH2PSq4m6keGAPrvllWC",
        "state": "pokestop",
        "coords": {
            "longitude": 2.30048,
            "latitude": 49.885447
        },
        "name": "\u00e9glise Saint Martin (Paroisse du Saint Esprit)"
    },
    {
        "image": "http:\/\/lh5.ggpht.com\/QlGwyBmiO87PYL7fdGT97-j60mVDn4w3vCF6sQUAcoN-tuP9JSUliDvdp3ybT-aIqPNWc9Fa-b2h5yfxNeo4",
        "state": "unconfirmed",
        "coords": {
            "longitude": 2.281234,
            "latitude": 49.914282
        },
        "name": "Monument Aux Morts"
    },
    {
        "image": "http:\/\/lh3.ggpht.com\/lSm_n-IOSt-6V-f-LWLaqrkoP0K0vuy6y1aTUvbQyer1Jy2BZkmiYaJ75K-OEOasiQAibwQfGot9WrBLhGUX",
        "state": "pokestop",
        "coords": {
            "longitude": 2.289897,
            "latitude": 49.897259
        },
        "name": "Institut du Monde Arabo-Musulman de Picardie"
    },
    {
        "image": "http:\/\/lh3.ggpht.com\/ZR_A7wSDxveODn5tYHLWGxCEwl0EVJxW-BjeE57kgQT-YrrxUWv3yoPrTh8Ojt5iqAjUhjGAZMiaWCqLt0TT6g",
        "state": "gym",
        "coords": {
            "longitude": 2.297113,
            "latitude": 49.89196
        },
        "name": "Amiens - Galerie Des Jacobins"
    },
    {
        "image": "http:\/\/lh6.ggpht.com\/Pse4ygNVWNSfc5udJE3cwr3xNztkM478VFgEF2gtXua2RPZWIqVuDmDXOaQGpUUvAxT8gUtVghv9qe_FEDAH",
        "state": "pokestop",
        "coords": {
            "longitude": 2.297425,
            "latitude": 49.885873
        },
        "name": "Lion Gardien de L'entr\u00e9e"
    },
    {
        "image": "http:\/\/lh6.ggpht.com\/CMfMSqfXB66H-r3VJolgRTJohpcvQFARn5vL5YTyAxyGbSD7YWzgbDF7UIjvNpysFHl3xOvasSm3my0j7RQ",
        "state": "pokestop",
        "coords": {
            "longitude": 2.292055,
            "latitude": 49.884315
        },
        "name": "Fleurs Du 148"
    },
    {
        "image": "http:\/\/lh4.ggpht.com\/fBhqSJdFNdG5YpqPHEkCgpLQuuZhhBZHPF_m3E6UOxhTXg5KGOpwnZ5zimgVDhMGbvUkTiekxCryr5z_-PiQ",
        "state": "pokestop",
        "coords": {
            "longitude": 2.336484,
            "latitude": 49.887056
        },
        "name": "La Borne de Camon"
    },
    {
        "image": "http:\/\/lh3.ggpht.com\/c9yQ2zpVRSaUV5lKzYHp5roZObsiQdJiNW4vbdQe859DiBSLvDeZtV2DdoL_N_a_3p9VuYH-MOqzZRKiL5Fu",
        "state": "pokestop",
        "coords": {
            "longitude": 2.297288,
            "latitude": 49.897024
        },
        "name": "Fontaine dans une arche  Amiens"
    },
    {
        "image": "http:\/\/lh6.ggpht.com\/S7RtNn8M8EDX2i51y_ATbhZeSIKDNYCHtOSlHnO5rc6jpFN5B47gNrzJrRhlrmbxachU-O58VWltYJnlF_pz",
        "state": "pokestop",
        "coords": {
            "longitude": 2.275661,
            "latitude": 49.900029
        },
        "name": "Les Pingouins, Amiens"
    },
    {
        "image": "http:\/\/lh5.ggpht.com\/J_6twsirXK2J-PLNAoOdYNgjsOpWqHR-YUdQ02jibfoeEfzQIM9_-D5u4kq3jtt9bBrc4Atj_vY54vEDptXkjw",
        "state": "gym",
        "coords": {
            "longitude": 2.297138,
            "latitude": 49.885696
        },
        "name": "Plaque Germaine Dulac"
    },
    {
        "image": "http:\/\/lh6.ggpht.com\/EXSbf6FFe0YT4x1YgGgbfJ47Yzo89qxFLZepi2k3BECH8sPwXDZzYaKBQO9XVR6bsADYAdEpkN_FqShrMX6wKg",
        "state": "pokestop",
        "coords": {
            "longitude": 2.379886,
            "latitude": 49.866934
        },
        "name": "Clock On Wall"
    },
    {
        "image": "http:\/\/lh4.ggpht.com\/KF5UugBgqmJkTSJJjfwZxXwXR3fg-IWKDrlJLMGuBnIO5ipVAkORwwSnsoUktCNyap21GQl7mYV7maucLpVOIg",
        "state": "pokestop",
        "coords": {
            "longitude": 2.306492,
            "latitude": 49.895913
        },
        "name": "Amiens - Club D'aviron"
    },
    {
        "image": "http:\/\/lh5.ggpht.com\/EpnW43QqLSLCSu1E9HwnRdYGm3Dqi2khelk3KWocj67hKcIO064G_SQUlrvXrK5XfDcOJyoQEeCJU0k6xJE0",
        "state": "pokestop",
        "coords": {
            "longitude": 2.286852,
            "latitude": 49.897545
        },
        "name": "Fresque du Centre Culturel Africain"
    },
    {
        "image": "http:\/\/lh6.ggpht.com\/dpFEUI8Yp7YfHfECCxUx8q5tTh1YnzJZ1IOUvyXtW0OoXIi0L3z5isGJWfFoErdtsN4FCHbQwDkvj-buFCz0",
        "state": "pokestop",
        "coords": {
            "longitude": 2.321155,
            "latitude": 49.894019
        },
        "name": "La Cath\u00e9drale"
    },
    {
        "image": "http:\/\/lh5.ggpht.com\/exliNBZyW6MkDt7cuIsaz2LlT5brdpf22rmqWp3ybgLnOZQ7ZvoFGwkYUSVSMQyhsJqrsLK4EbmhyP40EC_YpA",
        "state": "pokestop",
        "coords": {
            "longitude": 2.301377,
            "latitude": 49.891345
        },
        "name": "Human and Lion Melted"
    },
    {
        "image": "http:\/\/lh4.ggpht.com\/Oi9ra9ZE52VX36oGhIwiQB-xD8AFkku49Y7_L9XNbC7Sli3n6NdXPDeAcemXZlofQlDs4GG0mfj8tbbXl3OJ",
        "state": "pokestop",
        "coords": {
            "longitude": 2.297253,
            "latitude": 49.886738
        },
        "name": "Chapelle D'Auteuil"
    },
    {
        "image": "http:\/\/lh6.ggpht.com\/Tjl-xCMZjDo4MZ-2_Bwcd-UhUvRg6Xt6sInOXeXJJo_xve-EpcGZJz6qn_zsJVknrxLBONM-x8lnnH3PUkn6SA",
        "state": "gym",
        "coords": {
            "longitude": 2.363084,
            "latitude": 49.867881
        },
        "name": "Totem"
    },
    {
        "image": "http:\/\/lh4.ggpht.com\/Mn14bgB50oY96a_y1dRZUBPHyeFKDUD7NO-KBj9nFcarWgO0HGcDbjr6Fv3b3fGpNWa26pd0P2cx2BKbFKE0",
        "state": "unconfirmed",
        "coords": {
            "longitude": 2.338454,
            "latitude": 49.859179
        },
        "name": "Cagny - Cimeti\u00e8re"
    },
    {
        "image": "http:\/\/lh4.ggpht.com\/cdM8WpJB2BVZYBwOjZIKK4tJnsTMF650yvm6t0EYrQcVoTo9UtQYZW-EQ-6VUcK-n-3jO4bNgMseM_fe7Qf0",
        "state": "pokestop",
        "coords": {
            "longitude": 2.300886,
            "latitude": 49.897594
        },
        "name": "\u00c9glise St-Leu"
    },
    {
        "image": "http:\/\/lh3.ggpht.com\/i-3Zw7kuGNzhWit_hTTKr3DpIyCM6UbieV6bZj-k2oNQWn4N4OGS6F1AR31Ogu9yMeKjIOV8kmJ9xW98Fg84DQuD1S3FGw4UsbKUXBEVuv5w5zc",
        "state": "pokestop",
        "coords": {
            "longitude": 2.294913,
            "latitude": 49.890003
        },
        "name": "Amiens - Biblioth\u00e8que Communale"
    },
    {
        "image": "http:\/\/lh3.ggpht.com\/B9m6sOUizHuBRPVp75E19qvIaj1xjSa9ECdBMcRM4SjBmSIYal5XZ5buAPjH74bYaBrFL3mfkZLNfdUHssE",
        "state": "pokestop",
        "coords": {
            "longitude": 2.305608,
            "latitude": 49.889045
        },
        "name": "Square Aim\u00e9 C\u00e9saire"
    },
    {
        "image": "http:\/\/lh4.ggpht.com\/CdpPPCmuG-xQuFxMTDdf3B5DZ-NdcpMWRlwyFTSECFONx8lWiMjal2dCyO5YnGeluOUCIOAXNlc-KwQpvgIh",
        "state": "pokestop",
        "coords": {
            "longitude": 2.279879,
            "latitude": 49.885278
        },
        "name": "Plaques Comm\u00e9moratives Lemaire"
    },
    {
        "image": "http:\/\/lh4.ggpht.com\/Q8iqRL8l7gvL7buxh5-WR3CSc2luxAMwvx3vAI3IB0PRdi8MEjPTcJVDIauSWujcfs7J-Un_Pe3HiIR_gqM8",
        "state": "pokestop",
        "coords": {
            "longitude": 2.308296,
            "latitude": 49.890293
        },
        "name": "La SNCF A Ses Morts"
    },
    {
        "image": "http:\/\/lh4.ggpht.com\/7hmrGATNpNX1Yb7POb3yCU5OfQM6RR2LkAGVqih68zHg-lfiqAKZDrRlc228fXm8_-A3Za4tX0lV_Ud4Dd2UvQ",
        "state": "unconfirmed",
        "coords": {
            "longitude": 2.258551,
            "latitude": 49.91444
        },
        "name": "Entr\u00e9e Principale Du Parc de Monti\u00e8res"
    },
    {
        "image": "http:\/\/lh6.ggpht.com\/u8ENFS1buW5hjO9T3qo2RpclBgVwPRtrTyr5jouyhiVC44mcFelB4hC1P5yMu7MY9hVEgZJ0BWPYOdSZzT0AZA",
        "state": "pokestop",
        "coords": {
            "longitude": 2.281721,
            "latitude": 49.88394
        },
        "name": "Plaque Comm\u00e9morative"
    },
    {
        "image": "http:\/\/lh4.ggpht.com\/oGrzATEk1CtRVhgY_ZSqN0NFrq1qZf5k-x3F53Te3_uwVkPs52RDqqzrRcsTVUzrpVJMbDTkeBOgX1S4pRS2VQ",
        "state": "pokestop",
        "coords": {
            "longitude": 2.293913,
            "latitude": 49.897966
        },
        "name": "Vieux Chateau D'eau, Amiens"
    },
    {
        "image": "http:\/\/lh3.googleusercontent.com\/_ddXa3PVxUtf76IBuz_Zou4plafUanZzMdQkQTcfjO_1kmqMul3mnsT2Jf4sLrffdYWOROT0urwODCK9PLaD",
        "state": "pokestop",
        "coords": {
            "longitude": 2.326161,
            "latitude": 49.882432
        },
        "name": "Anciens Garages St Christophe"
    },
    {
        "image": "http:\/\/lh6.ggpht.com\/DbdXvpPLyx2E942-bo_1wjBsANRvOnZGEnlkXdKj2rm30BWEN__JFGOXe4gabUMgDBth7lRyGrku8zMLS-Ga",
        "state": "pokestop",
        "coords": {
            "longitude": 2.304426,
            "latitude": 49.894862
        },
        "name": "\u00c9cole Notre Dame"
    },
    {
        "image": "http:\/\/lh5.ggpht.com\/AnPrlu6vJ9rBcZ9sMXWAGoi5ek2euqDVbEhtA20x5dZaT8vADhjS7liRHnu5zzGVuseXLKLBWWDxqsDC6Dt9",
        "state": "pokestop",
        "coords": {
            "longitude": 2.298704,
            "latitude": 49.892666
        },
        "name": "Fa\u00e7ade Des Nouvelles Galeries"
    },
    {
        "image": "http:\/\/lh6.ggpht.com\/LyklFrNHKpkqLYMCERXpF3ZxlJagcgSEuXWeGTA_Zk2_gJZWi7rgshs9hZt0ggZiv_s8qahmmnJKkrubebhI",
        "state": "unconfirmed",
        "coords": {
            "longitude": 2.28059,
            "latitude": 49.88681
        },
        "name": "Paroisse Sainte Jeanne d'Arc"
    },
    {
        "image": "http:\/\/lh4.ggpht.com\/GQXHG2dtVxmZct6n5KS5FGu19nZ_Gg6HNWn5UKBp15zjrGKBfaRT5mhjfcYxoj7P3jgKc1B0hOsbMrap6hIgLg",
        "state": "pokestop",
        "coords": {
            "longitude": 2.292719,
            "latitude": 49.886014
        },
        "name": "T\u00eate Du 84"
    },
    {
        "image": "http:\/\/lh3.googleusercontent.com\/WeDh7u6L_7NZrDcd3fkF5B4fkpe_ECfGNYcgqFPb_oVIUcQJTzoNty8GI0b9eYKAaviu1yFyo1GiSPxhMlo",
        "state": "pokestop",
        "coords": {
            "longitude": 2.29687,
            "latitude": 49.900521
        },
        "name": "Mimi La Fourmi"
    },
    {
        "image": "http:\/\/lh6.ggpht.com\/Sd5534t7kAhKyXhj6z5npIS0oub0pBnTCx-144OnFpAof_WzVzByLOCX0JhOdZLwL-iI6Ip5lfWsXrOQqi7NOw",
        "state": "gym",
        "coords": {
            "longitude": 2.305973,
            "latitude": 49.890526
        },
        "name": "Le Carlton"
    },
    {
        "image": "http:\/\/lh4.ggpht.com\/UwwYvjtc_AGkDyhlAupcXn_oi6IU9bdsQoaNy3aUlJ5wUxzM4wuSZHa_bshA6uaqlLzsechWtzgLDnDQS2w",
        "state": "gym",
        "coords": {
            "longitude": 2.257793,
            "latitude": 49.910367
        },
        "name": "Statue De La Maternit\u00e9"
    },
    {
        "image": "http:\/\/lh5.ggpht.com\/P9QN8pGPKpFtmrrxH6J-46VNHGI4JkdEraLrUcEi0SbWt2zlPt8BmVfZYA7pQvDR1CJiU6GUOioaSDUZQ2Y",
        "state": "gym",
        "coords": {
            "longitude": 2.302575,
            "latitude": 49.907865
        },
        "name": "\u00c9glise"
    },
    {
        "image": "http:\/\/lh4.ggpht.com\/C7mvyJNmHQiADWr3F04nj3GVH_noNddfn5VviRVfEdjEJ-T615vpujeC1sjHW9Fao5nDTeYX7teHEpuhWSA",
        "state": "unconfirmed",
        "coords": {
            "longitude": 2.30162,
            "latitude": 49.901073
        },
        "name": "Amiens - Fontaine"
    },
    {
        "image": "http:\/\/lh4.ggpht.com\/Cno-PfMKlw3z6yg3gyRNh1FuT0pGz4OvulK7HWMvRsTJUwNroPlQjDAmnE6VICAa_LNz4MDAJJ-H3dLfok_okw",
        "state": "unconfirmed",
        "coords": {
            "longitude": 2.337436,
            "latitude": 49.858781
        },
        "name": "Jesus Cross"
    },
    {
        "image": "http:\/\/lh4.ggpht.com\/pBoNLH0VYLj34JvhBILCfYNSHmOgr4bOLpgSJ-nL24HoDv_fpJy6xGPV6YClcASJVgFhGJpoEpPWTkFHlUY",
        "state": "pokestop",
        "coords": {
            "longitude": 2.350618,
            "latitude": 49.86616
        },
        "name": "Ch\u00e2teau D'eau"
    },
    {
        "image": "http:\/\/lh4.ggpht.com\/AuSmKED8Bt-8f1LA3dVVHWjr0EYAF6iJ49A_Pk8kBR5vNJ5MlfnmS2cuqd1H-EtLghdeEWbz1H_fJFIvQN8tLg",
        "state": "pokestop",
        "coords": {
            "longitude": 2.309272,
            "latitude": 49.895489
        },
        "name": "Parc Saint Pierre"
    },
    {
        "image": "http:\/\/lh5.ggpht.com\/1xb6In6INvCiEbHDIfwBbEvMDwoBzxLKZRmHcdRm2ncoHGjfJxahuEyKslX0o_DuQ5ZyHif92GXLMulWMnSsAw",
        "state": "gym",
        "coords": {
            "longitude": 2.310101,
            "latitude": 49.871349
        },
        "name": "Stade Urbain"
    },
    {
        "image": "http:\/\/lh6.ggpht.com\/A5QuGFnv8m5annZJns4Y9JKTnHAWMQmnIeMepDLTTOJg190LAY-xSCRW2eEcX6WjDMa4fWUSmfjKHww_DDEwvQ",
        "state": "pokestop",
        "coords": {
            "longitude": 2.289552,
            "latitude": 49.889751
        },
        "name": "Memorial Corine Seguin"
    },
    {
        "image": "http:\/\/lh4.ggpht.com\/d3GV5XtBI3sxahvIUW7eRn94x_h_TPtxxSwY1dGSprKssT64ad6wXrf0i6Qk_5owGxYD_StW3Jdswjx9nAAnxQ",
        "state": "pokestop",
        "coords": {
            "longitude": 2.304131,
            "latitude": 49.901267
        },
        "name": "Labyrinthe Du Parc St Pierre"
    },
    {
        "image": "http:\/\/lh5.ggpht.com\/ISB0UjSWv85DQ7pNWmTW6h-QmWTgsxAX4vYMY0Ae0vjwy7f1akoO-5Sv7_YXVKlYmCMOI3pZjdljr9cOW3E",
        "state": "unconfirmed",
        "coords": {
            "longitude": 2.277917,
            "latitude": 49.90091
        },
        "name": "Delirium Tremens, Amiens"
    },
    {
        "image": "http:\/\/lh5.ggpht.com\/ck9Zv1_NhZ_aaPtF3BDC0I_UnyTaLzUfcD0HaRN4oRAssjuCy4aWOmBtI6JlSqYyZJkXb9XOdVhbCQxdOo7fKQ",
        "state": "unconfirmed",
        "coords": {
            "longitude": 2.298922,
            "latitude": 49.894249
        },
        "name": "Place Des Jets D'eau"
    },
    {
        "image": "http:\/\/lh5.ggpht.com\/C3cNU__4-t9cYfc9mLorXNyqIb2Mcl5sEaWBreeknMTUrMGxs_iVuhb1jMHGvVt-veFIOowPwIc8QnOaeRcT",
        "state": "gym",
        "coords": {
            "longitude": 2.277977,
            "latitude": 49.899736
        },
        "name": "Zoo D'Amiens"
    },
    {
        "image": "http:\/\/lh4.ggpht.com\/xJBGR6rAq6dgsyUxwJgA4hhZuRBc9wAMsf9aVb7cFk5ZIzB-4J3WHLYKLQEFdKOhap0p29A4Pha-z7iywH23",
        "state": "pokestop",
        "coords": {
            "longitude": 2.301398,
            "latitude": 49.893657
        },
        "name": "Jardin Urbain De Plantes M\u00e9dicinales"
    },
    {
        "image": "http:\/\/lh6.ggpht.com\/x2W2jZUONlYzZ_e1adknySaGCOk_-hpoydeM5uKaOV34GW6A69laky7mqjiynsKGn5nCdssu8sRWpTMa017g",
        "state": "gym",
        "coords": {
            "longitude": 2.342097,
            "latitude": 49.862373
        },
        "name": "Cagny, \u00c9glise"
    },
    {
        "image": "http:\/\/lh4.ggpht.com\/t8nQz_bbJPfPgF-77qGNK0MN2pKpXzgC-JTJr8LnRRwv6YSAMTvkhvpLJ-VZHwA5tTcjzDHOknihTW7XaVBA",
        "state": "pokestop",
        "coords": {
            "longitude": 2.300297,
            "latitude": 49.903915
        },
        "name": "Porte Fran\u00e7ois 1er"
    },
    {
        "image": "http:\/\/lh5.ggpht.com\/QnxV9TQPHi0zuMoBqjkSJQyL1tIjGs4_Fk6C4bQn7yzbWAes7fAIyQtFAJgobpEVBaKwbub7DaMWztp4UVOh",
        "state": "pokestop",
        "coords": {
            "longitude": 2.299916,
            "latitude": 49.892412
        },
        "name": "Fa\u00e7ade De l'ancien Th\u00e9\u00e2tre Amiens"
    },
    {
        "image": "http:\/\/lh3.ggpht.com\/J45OSD5l9WjklbrprcctmNwMrtWIU7bPmMy-D7h1HfHCUd2eLGC3AU4zCBNZJ1oLicyEVd-wrhGjUgwLEPMj",
        "state": "pokestop",
        "coords": {
            "longitude": 2.305323,
            "latitude": 49.892276
        },
        "name": "Virgin in a Box"
    },
    {
        "image": "http:\/\/lh3.googleusercontent.com\/58O_mKUz6WTQPMcnUhqFHrtUd8L7A9fY3jNWcyIUPxngKMqi6kLwjU31Lzle24KKukx3A08j5DpCnftQOd8",
        "state": "pokestop",
        "coords": {
            "longitude": 2.308667,
            "latitude": 49.922645
        },
        "name": "Aire De Jeux Geante"
    },
    {
        "image": "http:\/\/lh3.ggpht.com\/bXK4KCcpXG7U5u3h_pCRo3a5sPZgkBKNm6B4qgreyD4UoY-SVkyxtWYnIbS90awMCBU_XjQVcy1X6wK37dg_",
        "state": "pokestop",
        "coords": {
            "longitude": 2.307508,
            "latitude": 49.882748
        },
        "name": "Fructus Laboris"
    },
    {
        "image": "http:\/\/lh3.googleusercontent.com\/A8izyLs7IM5oy8rTD2dOqZv7leLBii6hABvu1ZjWKesIDv4UcYu4txAjCUD1bXGt3y9plTmhk80yyW6WRSOn",
        "state": "pokestop",
        "coords": {
            "longitude": 2.301705,
            "latitude": 49.894643
        },
        "name": "Amiens - Ange de la cath\u00e9drale"
    },
    {
        "image": "http:\/\/lh4.ggpht.com\/a-JJeLi77GglqzSJzJm8dMmVX4Tzz_AvA4sZRArUm8A9cPmE0OhDGszO8a4GPiPXrCk8y9wnTAHNpV330qE",
        "state": "unconfirmed",
        "coords": {
            "longitude": 2.337945,
            "latitude": 49.858747
        },
        "name": "Chapelle"
    },
    {
        "image": "http:\/\/lh4.ggpht.com\/HY4p8GgatYerb0mk7ebx24wfkq3cXPsw6keyRGrAlA3NSfMEi-vuidXUwMmPyvGTtMtFYQe_QImTFxsHl1Nj",
        "state": "unconfirmed",
        "coords": {
            "longitude": 2.281641,
            "latitude": 49.915527
        },
        "name": "Alexandre Lapostolle, 1749-1831"
    },
    {
        "image": "http:\/\/lh4.ggpht.com\/qa6ggK-xdl0iT6t8epS8i-Nu_Wz_wol0w_Ig0bPaAvmJk3VAD149qJ6dtacKix_DHbHPt73oale1tuLrKgyt",
        "state": "pokestop",
        "coords": {
            "longitude": 2.314998,
            "latitude": 49.873625
        },
        "name": "Fresque"
    },
    {
        "image": "http:\/\/lh5.ggpht.com\/HGy4MDLQuj30e3-I2akTUC26ipM00_pjUhl89pDWxlw5wEIW3jYs8c-TWiiQR9BO0nK_2umFJRF0-6W-e5Kp",
        "state": "gym",
        "coords": {
            "longitude": 2.304294,
            "latitude": 49.899347
        },
        "name": "Maison De La B\u00eate De Bois"
    },
    {
        "image": "http:\/\/lh3.ggpht.com\/_96iyM60kXuV4VOr4DFj220lg1la6vHxgGT4kgOi_qOc-EeZeZU64e_n-rkrW5bEnTNCCQmSZ9cKbHX5qxF5",
        "state": "pokestop",
        "coords": {
            "longitude": 2.314948,
            "latitude": 49.877299
        },
        "name": "Christ Aux \u00c9pines"
    },
    {
        "image": "http:\/\/lh6.ggpht.com\/S33uAoIqLctnrNvC3zFW0kVoAyDXjxJoFaSLy_hFBNIt1tKzGAUHFWBINkrI35T2AcqBACW7NN8ecrYUkreBrw",
        "state": "gym",
        "coords": {
            "longitude": 2.29439,
            "latitude": 49.896963
        },
        "name": "Square Des Soeurs Grises, Amiens"
    },
    {
        "image": "http:\/\/lh4.ggpht.com\/BAZ-hfweTPyWLLO_1GaS6lg7HYtf65MLrkxKR2yabnEs1Hrc5K3iWW0P8hNKdJNfjGSPFLMJk9F_Mv0N_DVD",
        "state": "pokestop",
        "coords": {
            "longitude": 2.295988,
            "latitude": 49.892505
        },
        "name": "Facade HUBAULT"
    },
    {
        "image": "http:\/\/lh3.googleusercontent.com\/wVITWYNuB0rWICuu9kIT098PeLMXMA73O8VATX5LBXKKg010FRZNIuJgAzvU0ksH1vdYYb9t0hSduL-b2lBl",
        "state": "pokestop",
        "coords": {
            "longitude": 2.305872,
            "latitude": 49.922911
        },
        "name": "Pomme D'amour G\u00e9ante"
    },
    {
        "image": "http:\/\/lh6.ggpht.com\/K5VyKmrCwyfZUetPf7vvSaWg8NyP1eI53KMqXt8sfu24vZlC36qzqz2fsBMzfkgRfW-rAEZ1MHqc4Fp8AcQ",
        "state": "gym",
        "coords": {
            "longitude": 2.300662,
            "latitude": 49.899209
        },
        "name": "My Goodness Irish Pub"
    },
    {
        "image": "http:\/\/lh3.googleusercontent.com\/QHojU2Ih27M3ZFIo6o7ZvKk8QTYv5UNy52fgkF6ro-iMcz-X8PM14dbsTXQ9auTQNqALRs5iITP1CwcOne3k",
        "state": "unconfirmed",
        "coords": {
            "longitude": 2.262491,
            "latitude": 49.92364
        },
        "name": "\u00c9glise De Lomgpr\u00e8s Les Amiens"
    },
    {
        "image": "http:\/\/lh4.ggpht.com\/J32rM6LDHoTZwzbmuBuxmI4ku6TfCnpYmmCqACvM07G0rcQ24ntpKS_codbRgRIg5lbPYAtQ8ulxRWxbvaeB",
        "state": "pokestop",
        "coords": {
            "longitude": 2.318067,
            "latitude": 49.887788
        },
        "name": "R\u00e9sidence Des \u00c9chevins Art"
    },
    {
        "image": "http:\/\/lh4.ggpht.com\/jCzq6Zzyxk3hbIJRpLiwUODGYtr6LcnE_Knr3zD3s1Cx8lkVdeg9tmYWH-ngD46vO9FD3HmrHTgkB0Yb8SFMR4VG7OedFZDLCLwxLooiQA7eVh0r",
        "state": "gym",
        "coords": {
            "longitude": 2.292234,
            "latitude": 49.893958
        },
        "name": "Maison de la Culture"
    },
    {
        "image": "http:\/\/lh5.ggpht.com\/2Q6m5GDhi-pwFGWcw6TDDTDq_TN8KyhqwEtFwtgq-UN0sOvXmJumwAQpr3ZV5S69xVPDPMH8-WoLGTfmMWH8",
        "state": "pokestop",
        "coords": {
            "longitude": 2.275662,
            "latitude": 49.898566
        },
        "name": "Hotoie's Spider"
    },
    {
        "image": "http:\/\/lh3.ggpht.com\/REF6ENbl0_QZaRt6ZlcNYtyj4qIxPfWJd5cIyyeFZ0gKm7mChSsF0ul2fv1vNR_8HzzlVwKOj88LGUEHMYor",
        "state": "unconfirmed",
        "coords": {
            "longitude": 2.290162,
            "latitude": 49.892459
        },
        "name": "Nobleman's House"
    },
    {
        "image": "http:\/\/lh3.googleusercontent.com\/96yxt7NZZGFwq9cv7mGT6oveRRnG67pyDzP4Lyv99nqBWjFNzM7nMFgGBLlveOADf8eZvI_Ya7csOAcp8uVt",
        "state": "pokestop",
        "coords": {
            "longitude": 2.306592,
            "latitude": 49.903348
        },
        "name": "Fresque Murale"
    },
    {
        "image": "http:\/\/lh3.googleusercontent.com\/rGlrJQ9NKsWh2e7MsZT97q9A1nJgMW0P-BfJ3hx-MGHuJZNzJ3NnaEMurreXkPafk90fQDO66E_8a7c8U9ey",
        "state": "unconfirmed",
        "coords": {
            "longitude": 2.321085,
            "latitude": 49.884708
        },
        "name": "Agence Postale Des Platanes"
    },
    {
        "image": "http:\/\/lh4.ggpht.com\/WZP4XHUdtJygNz0inSbBiD-0W9Qk9ZUTjP19BdEZQu6JKqlsB55qQTYtQHXOjVQyCeD4FZThGiua_8bEHnMy",
        "state": "unconfirmed",
        "coords": {
            "longitude": 2.303432,
            "latitude": 49.895582
        },
        "name": "Don Quichotte"
    },
    {
        "image": "http:\/\/lh6.ggpht.com\/wmDpf4Extd-Cuk_2Mz6dw5MtlVXavPOyjYHrae9kvmAfNNgs7kwa-0V4IhBuoG54uEShGv0KbWoM8wytNV8Now",
        "state": "pokestop",
        "coords": {
            "longitude": 2.296873,
            "latitude": 49.897673
        },
        "name": "Centre Culturel L\u00e9o Lagrange"
    },
    {
        "image": "http:\/\/lh3.googleusercontent.com\/mWTFild1C6RerpijwRzK2OYQ3rLeJNPWsQilBoNw5FUVMqyQpk0nWXpTgEZ6X0KvdsDr4jbi-T_8H_IjzoY",
        "state": "unconfirmed",
        "coords": {
            "longitude": 2.301686,
            "latitude": 49.896603
        },
        "name": "Cin\u00e9 St Leu"
    },